{"displayFieldName":"","fieldAliases":{"FID":"FID","ID":"ID","ESCOLA":"ESCOLA","ENDERECO":"ENDERECO","NUM":"NUM","BAIRRO":"BAIRRO","ZONA":"ZONA","CEP":"CEP","LOCAL":"LOCAL","DISTRITO":"DISTRITO","INEP":"INEP","SIGEAM":"SIGEAM","TIPO":"TIPO","REDE":"REDE","LATITUDE":"LATITUDE","LONGITUDE":"LONGITUDE","MUNICIPIO":"MUNICIPIO"},"geometryType":"esriGeometryPoint","spatialReference":{"wkid":4326,"latestWkid":4326},"fields":[{"name":"FID","type":"esriFieldTypeOID","alias":"FID"},{"name":"ID","type":"esriFieldTypeDouble","alias":"ID"},{"name":"ESCOLA","type":"esriFieldTypeString","alias":"ESCOLA","length":254},{"name":"ENDERECO","type":"esriFieldTypeString","alias":"ENDERECO","length":254},{"name":"NUM","type":"esriFieldTypeString","alias":"NUM","length":254},{"name":"BAIRRO","type":"esriFieldTypeString","alias":"BAIRRO","length":254},{"name":"ZONA","type":"esriFieldTypeString","alias":"ZONA","length":254},{"name":"CEP","type":"esriFieldTypeDouble","alias":"CEP"},{"name":"LOCAL","type":"esriFieldTypeString","alias":"LOCAL","length":254},{"name":"DISTRITO","type":"esriFieldTypeString","alias":"DISTRITO","length":254},{"name":"INEP","type":"esriFieldTypeDouble","alias":"INEP"},{"name":"SIGEAM","type":"esriFieldTypeDouble","alias":"SIGEAM"},{"name":"TIPO","type":"esriFieldTypeString","alias":"TIPO","length":254},{"name":"REDE","type":"esriFieldTypeString","alias":"REDE","length":254},{"name":"LATITUDE","type":"esriFieldTypeDouble","alias":"LATITUDE"},{"name":"LONGITUDE","type":"esriFieldTypeDouble","alias":"LONGITUDE"},{"name":"MUNICIPIO","type":"esriFieldTypeString","alias":"MUNICIPIO","length":254}],"features":[{"attributes":{"FID":0,"ID":0,"ESCOLA":"INSTITUTO BENJAMIN CONSTANT - CETAM","ENDERECO":"AV RAMOS FERREIRA","NUM":"S/N","BAIRRO":"CENTRO","ZONA":"ZONA SUL","CEP":69010120,"LOCAL":"URBANA","DISTRITO":"COORD. DISTRITAL 01","INEP":13094149,"SIGEAM":0,"TIPO":"CETAM","REDE":"ESTADUAL","LATITUDE":-3.127983,"LONGITUDE":-60.023018,"MUNICIPIO":"MANAUS"},"geometry":{"x":-60.022999998182058,"y":-3.1279999986290932}},{"attributes":{"FID":1,"ID":1,"ESCOLA":"ESCOLA DE FORMACAO PROFISSIONAL ENFERMEIRA FRANCISCA SAAVEDRA","ENDERECO":"RUA DESEMBARGADOR FELISMINO SOARES","NUM":"S/N","BAIRRO":"COLONIA OLIVEIRA MACHADO","ZONA":"ZONA SUL","CEP":69070620,"LOCAL":"URBANA","DISTRITO":"COORD. DISTRITAL 02","INEP":13090003,"SIGEAM":0,"TIPO":" ","REDE":"ESTADUAL","LATITUDE":-3.1466090000000002,"LONGITUDE":-60.005996000000003,"MUNICIPIO":"MANAUS"},"geometry":{"x":-60.006000000983477,"y":-3.1466000005602837}},{"attributes":{"FID":2,"ID":2,"ESCOLA":"CENTRO DE EDUC PROF PE ESTELIO DALISON - CETAM","ENDERECO":"RUA EMILIO RUAS","NUM":"S/N","BAIRRO":"SAO JORGE","ZONA":"ZONA OESTE","CEP":69033440,"LOCAL":"URBANA","DISTRITO":"COORD. DISTRITAL 04","INEP":13098055,"SIGEAM":0,"TIPO":"CETAM","REDE":"ESTADUAL","LATITUDE":-3.1086879999999999,"LONGITUDE":-60.035797000000002,"MUNICIPIO":"MANAUS"},"geometry":{"x":-60.035799998790026,"y":-3.1086999997496605}},{"attributes":{"FID":3,"ID":3,"ESCOLA":"CENTRO CULTURAL THIAGO DE MELO","ENDERECO":"AV. AUTAZ MIRIM","NUM":"9018","BAIRRO":"NOVO ALEIXO","ZONA":"ZONA NORTE","CEP":69099045,"LOCAL":"URBANA","DISTRITO":"COORD. DISTRITAL 06","INEP":0,"SIGEAM":0,"TIPO":" ","REDE":"ESTADUAL","LATITUDE":-3.0391840000000001,"LONGITUDE":-59.941581999999997,"MUNICIPIO":"MANAUS"},"geometry":{"x":-59.941599998623133,"y":-3.0392000004649162}},{"attributes":{"FID":4,"ID":4,"ESCOLA":"ESCOLA ESTADUAL ITACYARA NOGUEIRA PINHO","ENDERECO":"RUA 3","NUM":"S/N","BAIRRO":"PLANALTO","ZONA":"ZONA CENTRO-OESTE","CEP":69044500,"LOCAL":"URBANA","DISTRITO":"COORD. DISTRITAL 04","INEP":13030442,"SIGEAM":4,"TIPO":"NORMAL","REDE":"ESTADUAL","LATITUDE":-3.0731519999999999,"LONGITUDE":-60.060906000000003,"MUNICIPIO":"MANAUS"},"geometry":{"x":-60.060899998992682,"y":-3.0731999985873699}},{"attributes":{"FID":5,"ID":5,"ESCOLA":"ESCOLA ESTADUAL MARIA DA LUZ CALDERARO","ENDERECO":"RUA 18","NUM":"S/N","BAIRRO":"REDENCAO","ZONA":"ZONA CENTRO-OESTE","CEP":69049340,"LOCAL":"URBANA","DISTRITO":"COORD. DISTRITAL 03","INEP":13031112,"SIGEAM":5,"TIPO":"NORMAL","REDE":"ESTADUAL","LATITUDE":-3.0517129999999999,"LONGITUDE":-60.039223999999997,"MUNICIPIO":"MANAUS"},"geometry":{"x":-60.039200000464916,"y":-3.0516999997198582}},{"attributes":{"FID":6,"ID":6,"ESCOLA":"ESCOLA ESTADUAL MARIA RODRIGUES TAPAJOS","ENDERECO":"RUA GOIANIA","NUM":"701","BAIRRO":"REDENCAO","ZONA":"ZONA CENTRO-OESTE","CEP":69046300,"LOCAL":"URBANA","DISTRITO":"COORD. DISTRITAL 03","INEP":13027638,"SIGEAM":6,"TIPO":"INTEG","REDE":"ESTADUAL","LATITUDE":-3.0610400000000002,"LONGITUDE":-60.046359000000002,"MUNICIPIO":"MANAUS"},"geometry":{"x":-60.046399999409914,"y":-3.0610000006854534}},{"attributes":{"FID":7,"ID":7,"ESCOLA":"ESCOLA ESTADUAL OLGA FALCONE","ENDERECO":"RUA THEOFILO MATOS","NUM":"70","BAIRRO":"DA PAZ","ZONA":"ZONA CENTRO-OESTE","CEP":69049140,"LOCAL":"URBANA","DISTRITO":"COORD. DISTRITAL 03","INEP":13030710,"SIGEAM":7,"TIPO":"NORMAL","REDE":"ESTADUAL","LATITUDE":-3.0555099999999999,"LONGITUDE":-60.030498000000001,"MUNICIPIO":"MANAUS"},"geometry":{"x":-60.030499998480082,"y":-3.0555000007152557}},{"attributes":{"FID":8,"ID":8,"ESCOLA":"ESCOLA ESTADUAL RAIMUNDO GOMES NOGUEIRA","ENDERECO":"RUA B28","NUM":"S/N","BAIRRO":"ALVORADA","ZONA":"ZONA CENTRO-OESTE","CEP":69048600,"LOCAL":"URBANA","DISTRITO":"COORD. DISTRITAL 03","INEP":13030833,"SIGEAM":8,"TIPO":"NORMAL","REDE":"ESTADUAL","LATITUDE":-3.0621800000000001,"LONGITUDE":-60.039682999999997,"MUNICIPIO":"MANAUS"},"geometry":{"x":-60.039700001478195,"y":-3.0621999986469746}},{"attributes":{"FID":9,"ID":9,"ESCOLA":"ESCOLA ESTADUAL ROSINA FERREIRA DA SILVA","ENDERECO":"AV DES JOAO MACHADO","NUM":"S/N","BAIRRO":"ALVORADA","ZONA":"ZONA CENTRO-OESTE","CEP":69038010,"LOCAL":"URBANA","DISTRITO":"COORD. DISTRITAL 03","INEP":13031171,"SIGEAM":9,"TIPO":"NORMAL","REDE":"ESTADUAL","LATITUDE":-3.0722719999999999,"LONGITUDE":-60.044995,"MUNICIPIO":"MANAUS"},"geometry":{"x":-60.045000001788139,"y":-3.0722999982535839}},{"attributes":{"FID":10,"ID":10,"ESCOLA":"ESCOLA ESTADUAL TEREZA DE JESUS AZEVEDO DE VASCONCELOS DIAS","ENDERECO":"RUA QUINZE DE OUTUBRO","NUM":"S/N","BAIRRO":"REDENCAO","ZONA":"ZONA CENTRO-OESTE","CEP":69047230,"LOCAL":"URBANA","DISTRITO":"COORD. DISTRITAL 03","INEP":13030000,"SIGEAM":10,"TIPO":"NORMAL","REDE":"ESTADUAL","LATITUDE":-3.0601660000000002,"LONGITUDE":-60.037666999999999,"MUNICIPIO":"MANAUS"},"geometry":{"x":-60.03770000115037,"y":-3.060199998319149}},{"attributes":{"FID":11,"ID":11,"ESCOLA":"ESCOLA ESTADUAL THOME DE MEDEIROS RAPOSO","ENDERECO":"RUA 3","NUM":"S/N","BAIRRO":"REDENCAO","ZONA":"ZONA CENTRO-OESTE","CEP":69049190,"LOCAL":"URBANA","DISTRITO":"COORD. DISTRITAL 03","INEP":13030949,"SIGEAM":11,"TIPO":"NORMAL","REDE":"ESTADUAL","LATITUDE":-3.0508799999999998,"LONGITUDE":-60.037618999999999,"MUNICIPIO":"MANAUS"},"geometry":{"x":-60.037599999457598,"y":-3.0509000010788441}},{"attributes":{"FID":12,"ID":12,"ESCOLA":"ESCOLA ESTADUAL FRANCISCA BOTINELLY CUNHA E SILVA","ENDERECO":"AV PEDRO TEXEIRA","NUM":"S/N","BAIRRO":"DOM PEDRO I","ZONA":"ZONA CENTRO-OESTE","CEP":69040000,"LOCAL":"URBANA","DISTRITO":"COORD. DISTRITAL 03","INEP":13031074,"SIGEAM":12,"TIPO":"INTEG","REDE":"ESTADUAL","LATITUDE":-3.0861589999999999,"LONGITUDE":-60.035333999999999,"MUNICIPIO":"MANAUS"},"geometry":{"x":-60.035300001502037,"y":-3.0861999988555908}},{"attributes":{"FID":13,"ID":13,"ESCOLA":"ESCOLA ESTADUAL GONCALVES DIAS","ENDERECO":"AV DOM PEDRO I","NUM":"S/N","BAIRRO":"DOM PEDRO I","ZONA":"ZONA CENTRO-OESTE","CEP":69040040,"LOCAL":"URBANA","DISTRITO":"COORD. DISTRITAL 03","INEP":13030361,"SIGEAM":13,"TIPO":"INTEG","REDE":"ESTADUAL","LATITUDE":-3.0865770000000001,"LONGITUDE":-60.040007000000003,"MUNICIPIO":"MANAUS"},"geometry":{"x":-60.03999999910593,"y":-3.0865999981760979}},{"attributes":{"FID":14,"ID":14,"ESCOLA":"ESCOLA ESTADUAL HUMBERTO DE CAMPOS","ENDERECO":"AV LORIS CORDOVIL","NUM":"S/N","BAIRRO":"ALVORADA","ZONA":"ZONA CENTRO-OESTE","CEP":69043660,"LOCAL":"URBANA","DISTRITO":"COORD. DISTRITAL 03","INEP":13030418,"SIGEAM":14,"TIPO":"NORMAL","REDE":"ESTADUAL","LATITUDE":-3.0798049999999999,"LONGITUDE":-60.034643000000003,"MUNICIPIO":"MANAUS"},"geometry":{"x":-60.034600000828505,"y":-3.0797999985516071}},{"attributes":{"FID":15,"ID":15,"ESCOLA":"ESCOLA ESTADUAL MARIA AMELIA DO ESPIRITO SANTO","ENDERECO":"RUA DAS JUREMAS","NUM":"S/N","BAIRRO":"DOM PEDRO I","ZONA":"ZONA CENTRO-OESTE","CEP":69040290,"LOCAL":"URBANA","DISTRITO":"COORD. DISTRITAL 03","INEP":13030566,"SIGEAM":16,"TIPO":"NORMAL","REDE":"ESTADUAL","LATITUDE":-3.0920899999999998,"LONGITUDE":-60.039278000000003,"MUNICIPIO":"MANAUS"},"geometry":{"x":-60.039299998432398,"y":-3.0920999981462955}},{"attributes":{"FID":16,"ID":16,"ESCOLA":"ESCOLA ESTADUAL PROF ALDA BARATA","ENDERECO":"QUADRA C","NUM":"S/N","BAIRRO":"FLORES","ZONA":"ZONA CENTRO-SUL","CEP":69043460,"LOCAL":"URBANA","DISTRITO":"COORD. DISTRITAL 03","INEP":13030167,"SIGEAM":17,"TIPO":"NORMAL","REDE":"ESTADUAL","LATITUDE":-3.0795620000000001,"LONGITUDE":-60.027034999999998,"MUNICIPIO":"MANAUS"},"geometry":{"x":-60.026999998837709,"y":-3.0795999988913536}},{"attributes":{"FID":17,"ID":17,"ESCOLA":"ESCOLA ESTADUAL SENADOR PETRONIO PORTELLA","ENDERECO":"AV BARTOLOMEU BUENO DA SILVA","NUM":"S/N","BAIRRO":"DOM PEDRO I","ZONA":"ZONA CENTRO-OESTE","CEP":69040070,"LOCAL":"URBANA","DISTRITO":"COORD. DISTRITAL 03","INEP":13027972,"SIGEAM":20,"TIPO":"INTEG","REDE":"ESTADUAL","LATITUDE":-3.084441,"LONGITUDE":-60.046002999999999,"MUNICIPIO":"MANAUS"},"geometry":{"x":-60.046000000089407,"y":-3.0843999981880188}},{"attributes":{"FID":18,"ID":18,"ESCOLA":"ESCOLA ESTADUAL ALFREDO FERNANDES","ENDERECO":"RUA ZULMAR","NUM":"S/N","BAIRRO":"PLANALTO","ZONA":"ZONA CENTRO-OESTE","CEP":69037519,"LOCAL":"URBANA","DISTRITO":"COORD. DISTRITAL 04","INEP":13027077,"SIGEAM":21,"TIPO":"NORMAL","REDE":"ESTADUAL","LATITUDE":-3.0740829999999999,"LONGITUDE":-60.059137999999997,"MUNICIPIO":"MANAUS"},"geometry":{"x":-60.059099998325109,"y":-3.0740999989211559}},{"attributes":{"FID":19,"ID":19,"ESCOLA":"ESCOLA ESTADUAL ANTONIO DA ENCARNACAO FILHO","ENDERECO":"AV DESEMB JOAO MACHADO","NUM":"211","BAIRRO":"LIRIO DO VALE","ZONA":"ZONA OESTE","CEP":69037000,"LOCAL":"URBANA","DISTRITO":"COORD. DISTRITAL 04","INEP":13027158,"SIGEAM":22,"TIPO":"NORMAL","REDE":"ESTADUAL","LATITUDE":-3.075304,"LONGITUDE":-60.064638000000002,"MUNICIPIO":"MANAUS"},"geometry":{"x":-60.064599998295307,"y":-3.0753000006079674}},{"attributes":{"FID":20,"ID":20,"ESCOLA":"ESCOLA ESTADUAL FRANCELINA DANTAS","ENDERECO":"AV M","NUM":"375","BAIRRO":"ALVORADA","ZONA":"ZONA CENTRO-OESTE","CEP":69042230,"LOCAL":"URBANA","DISTRITO":"COORD. DISTRITAL 03","INEP":13030302,"SIGEAM":23,"TIPO":"NORMAL","REDE":"ESTADUAL","LATITUDE":-3.0791740000000001,"LONGITUDE":-60.050936,"MUNICIPIO":"MANAUS"},"geometry":{"x":-60.050900001078844,"y":-3.0791999995708466}},{"attributes":{"FID":21,"ID":21,"ESCOLA":"ESCOLA ESTADUAL PROF JOSE RIBAMAR DA COSTA","ENDERECO":"RUA 6","NUM":"S/N","BAIRRO":"LIRIO DO VALE","ZONA":"ZONA OESTE","CEP":69038330,"LOCAL":"URBANA","DISTRITO":"COORD. DISTRITAL 04","INEP":13030477,"SIGEAM":24,"TIPO":"NORMAL","REDE":"ESTADUAL","LATITUDE":-3.068117,"LONGITUDE":-60.069510999999999,"MUNICIPIO":"MANAUS"},"geometry":{"x":-60.069499999284744,"y":-3.0681000016629696}},{"attributes":{"FID":22,"ID":22,"ESCOLA":"ESCOLA ESTADUAL SENADOR MANUEL SEVERIANO NUNES","ENDERECO":"AV 7 DE ABRIL","NUM":"12","BAIRRO":"ALVORADA","ZONA":"ZONA CENTRO-OESTE","CEP":69042400,"LOCAL":"URBANA","DISTRITO":"COORD. DISTRITAL 03","INEP":13031198,"SIGEAM":25,"TIPO":"NORMAL","REDE":"ESTADUAL","LATITUDE":-3.0794640000000002,"LONGITUDE":-60.049633,"MUNICIPIO":"MANAUS"},"geometry":{"x":-60.049600001424551,"y":-3.079500000923872}},{"attributes":{"FID":23,"ID":23,"ESCOLA":"ESCOLA ESTADUAL MARIA DE LOURDES RODRIGUES ARRUDA","ENDERECO":"RUA THOMAZ ANTONIO GONZAGA","NUM":"S/N","BAIRRO":"ALVORADA","ZONA":"ZONA CENTRO-OESTE","CEP":69042560,"LOCAL":"URBANA","DISTRITO":"COORD. DISTRITAL 03","INEP":13030582,"SIGEAM":26,"TIPO":"NORMAL","REDE":"ESTADUAL","LATITUDE":-3.0827520000000002,"LONGITUDE":-60.053122999999999,"MUNICIPIO":"MANAUS"},"geometry":{"x":-60.053100001066923,"y":-3.0828000009059906}},{"attributes":{"FID":24,"ID":24,"ESCOLA":"ESCOLA ESTADUAL PROF WALDIR GARCIA","ENDERECO":"AV JOAO PAULO","NUM":"S/N","BAIRRO":"ALVORADA","ZONA":"ZONA CENTRO-OESTE","CEP":69042210,"LOCAL":"URBANA","DISTRITO":"COORD. DISTRITAL 03","INEP":13027832,"SIGEAM":27,"TIPO":"NORMAL","REDE":"ESTADUAL","LATITUDE":-3.0774110000000001,"LONGITUDE":-60.049160000000001,"MUNICIPIO":"MANAUS"},"geometry":{"x":-60.049199998378754,"y":-3.0773999989032745}},{"attributes":{"FID":25,"ID":25,"ESCOLA":"ESCOLA ESTADUAL ANTONIO TELES DE SOUZA","ENDERECO":"SANTA QUITERIA","NUM":"805","BAIRRO":"PRESIDENTE VARGAS","ZONA":"ZONA SUL","CEP":69025080,"LOCAL":"URBANA","DISTRITO":"COORD. DISTRITAL 01","INEP":13031023,"SIGEAM":28,"TIPO":"INTEG","REDE":"ESTADUAL","LATITUDE":-3.1190090000000001,"LONGITUDE":-60.028920999999997,"MUNICIPIO":"MANAUS"},"geometry":{"x":-60.028900001198053,"y":-3.1189999990165234}},{"attributes":{"FID":26,"ID":26,"ESCOLA":"ESCOLA ESTADUAL CONEGO AZEVEDO","ENDERECO":"RUA XAVIER DE MENDONCA","NUM":"155","BAIRRO":"NOSSA SENHORA APARECIDA","ZONA":"ZONA SUL","CEP":69010430,"LOCAL":"URBANA","DISTRITO":"COORD. DISTRITAL 01","INEP":13030264,"SIGEAM":29,"TIPO":"NORMAL","REDE":"ESTADUAL","LATITUDE":-3.130369,"LONGITUDE":-60.030817999999996,"MUNICIPIO":"MANAUS"},"geometry":{"x":-60.030799999833107,"y":-3.1303999982774258}},{"attributes":{"FID":27,"ID":27,"ESCOLA":"ESCOLA ESTADUAL HERMENEGILDO DE CAMPOS","ENDERECO":"RUA DA LEGIAO PRESIDENTE VARGAS","NUM":"S/N","BAIRRO":"PRESIDENTE VARGAS","ZONA":"ZONA SUL","CEP":69025170,"LOCAL":"URBANA","DISTRITO":"COORD. DISTRITAL 01","INEP":13030396,"SIGEAM":30,"TIPO":"INTEG","REDE":"ESTADUAL","LATITUDE":-3.1206610000000001,"LONGITUDE":-60.02948,"MUNICIPIO":"MANAUS"},"geometry":{"x":-60.029500000178814,"y":-3.1207000017166138}},{"attributes":{"FID":28,"ID":28,"ESCOLA":"ESCOLA ESTADUAL NOSSA SENHORA APARECIDA","ENDERECO":"RUA COM ALEXANDRE AMORIM","NUM":"325","BAIRRO":"NOSSA SENHORA APARECIDA","ZONA":"ZONA SUL","CEP":69010300,"LOCAL":"URBANA","DISTRITO":"COORD. DISTRITAL 01","INEP":13031120,"SIGEAM":31,"TIPO":"NORMAL","REDE":"ESTADUAL","LATITUDE":-3.1292469999999999,"LONGITUDE":-60.029896999999998,"MUNICIPIO":"MANAUS"},"geometry":{"x":-60.029899999499321,"y":-3.1292000003159046}},{"attributes":{"FID":29,"ID":29,"ESCOLA":"ESCOLA ESTADUAL VICENTE SCHETTINI","ENDERECO":"RUA COM ALEXANDRE AMORIM","NUM":"325","BAIRRO":"NOSSA SENHORA APARECIDA","ZONA":"ZONA SUL","CEP":69010300,"LOCAL":"URBANA","DISTRITO":"COORD. DISTRITAL 01","INEP":13030957,"SIGEAM":32,"TIPO":"NORMAL","REDE":"ESTADUAL","LATITUDE":-3.1285189999999998,"LONGITUDE":-60.029743000000003,"MUNICIPIO":"MANAUS"},"geometry":{"x":-60.029699999839067,"y":-3.1284999996423721}},{"attributes":{"FID":30,"ID":30,"ESCOLA":"ESCOLA ESTADUAL ADALBERTO VALE","ENDERECO":"RUA SAO BENEDITO","NUM":"S/N","BAIRRO":"MORRO DA LIBERDADE","ZONA":"ZONA SUL","CEP":69074760,"LOCAL":"URBANA","DISTRITO":"COORD. DISTRITAL 02","INEP":13030132,"SIGEAM":33,"TIPO":"NORMAL","REDE":"ESTADUAL","LATITUDE":-3.1371250000000002,"LONGITUDE":-60.000011999999998,"MUNICIPIO":"MANAUS"},"geometry":{"x":-60,"y":-3.1370999999344349}},{"attributes":{"FID":31,"ID":31,"ESCOLA":"ESCOLA ESTADUAL ANTONIO DE LUCENA BITTENCOURT","ENDERECO":"AV ADALBERTO VALE","NUM":"1000","BAIRRO":"MORRO DA LIBERDADE","ZONA":"ZONA SUL","CEP":69073040,"LOCAL":"URBANA","DISTRITO":"COORD. DISTRITAL 02","INEP":13031007,"SIGEAM":34,"TIPO":"NORMAL","REDE":"ESTADUAL","LATITUDE":-3.1363560000000001,"LONGITUDE":-59.998891,"MUNICIPIO":"MANAUS"},"geometry":{"x":-59.99890000000596,"y":-3.1363999992609024}},{"attributes":{"FID":32,"ID":32,"ESCOLA":"ESCOLA ESTADUAL BOM PASTOR","ENDERECO":"RUA SAO MARCOS","NUM":"S/N","BAIRRO":"CRESPO","ZONA":"ZONA SUL","CEP":69073821,"LOCAL":"URBANA","DISTRITO":"COORD. DISTRITAL 02","INEP":13030230,"SIGEAM":35,"TIPO":"NORMAL","REDE":"ESTADUAL","LATITUDE":-3.1334330000000001,"LONGITUDE":-59.988979,"MUNICIPIO":"MANAUS"},"geometry":{"x":-59.989000000059605,"y":-3.1334000006318092}},{"attributes":{"FID":33,"ID":33,"ESCOLA":"ESCOLA ESTADUAL BRIG JOAO CAMARAO TELLES RIBEIRO","ENDERECO":"RUA NOVA","NUM":"1000","BAIRRO":"SAO LAZARO","ZONA":"ZONA SUL","CEP":69073140,"LOCAL":"URBANA","DISTRITO":"COORD. DISTRITAL 02","INEP":13029967,"SIGEAM":36,"TIPO":"NORMAL","REDE":"ESTADUAL","LATITUDE":-3.1404100000000001,"LONGITUDE":-59.990862999999997,"MUNICIPIO":"MANAUS"},"geometry":{"x":-59.990899998694658,"y":-3.1403999999165535}},{"attributes":{"FID":34,"ID":34,"ESCOLA":"ESCOLA ESTADUAL DORVAL PORTO","ENDERECO":"RUA MAGALHAES BARATA","NUM":"S/N","BAIRRO":"CRESPO","ZONA":"ZONA SUL","CEP":69073280,"LOCAL":"URBANA","DISTRITO":"COORD. DISTRITAL 02","INEP":13030272,"SIGEAM":37,"TIPO":"NORMAL","REDE":"ESTADUAL","LATITUDE":-3.1320459999999999,"LONGITUDE":-59.990850999999999,"MUNICIPIO":"MANAUS"},"geometry":{"x":-59.990899998694658,"y":-3.1319999992847443}},{"attributes":{"FID":35,"ID":35,"ESCOLA":"ESCOLA ESTADUAL NOSSA SENHORA DA DIVINA PROVIDENCIA","ENDERECO":"RUA DO CRUZEIRO","NUM":"4","BAIRRO":"BETANIA","ZONA":"ZONA SUL","CEP":69073020,"LOCAL":"URBANA","DISTRITO":"COORD. DISTRITAL 02","INEP":13030655,"SIGEAM":38,"TIPO":"NORMAL","REDE":"ESTADUAL","LATITUDE":-3.1350039999999999,"LONGITUDE":-59.995510000000003,"MUNICIPIO":"MANAUS"},"geometry":{"x":-59.99549999833107,"y":-3.1350000016391277}},{"attributes":{"FID":36,"ID":36,"ESCOLA":"ESCOLA ESTADUAL PAULA ANGELA FRASSINETTI","ENDERECO":"RUA SAO PEDRO","NUM":"820","BAIRRO":"MORRO DA LIBERDADE","ZONA":"ZONA SUL","CEP":69074730,"LOCAL":"URBANA","DISTRITO":"COORD. DISTRITAL 02","INEP":13030744,"SIGEAM":39,"TIPO":"NORMAL","REDE":"ESTADUAL","LATITUDE":-3.137381,"LONGITUDE":-60.001373000000001,"MUNICIPIO":"MANAUS"},"geometry":{"x":-60.001400001347065,"y":-3.1374000012874603}},{"attributes":{"FID":37,"ID":37,"ESCOLA":"ESCOLA ESTADUAL PROF NELSON ALVES FERREIRA","ENDERECO":"RUA 5 DE FEVEREIRO","NUM":"S/N","BAIRRO":"BETANIA","ZONA":"ZONA SUL","CEP":69073300,"LOCAL":"URBANA","DISTRITO":"COORD. DISTRITAL 02","INEP":13030795,"SIGEAM":40,"TIPO":"NORMAL","REDE":"ESTADUAL","LATITUDE":-3.1308370000000001,"LONGITUDE":-59.993977999999998,"MUNICIPIO":"MANAUS"},"geometry":{"x":-59.993999999016523,"y":-3.1308000013232231}},{"attributes":{"FID":38,"ID":38,"ESCOLA":"ESCOLA ESTADUAL SENADOR ANTOVILA MOURAO VIEIRA","ENDERECO":"RUA SAO VICENTE","NUM":"S/N","BAIRRO":"SAO LAZARO","ZONA":"ZONA SUL","CEP":69073010,"LOCAL":"URBANA","DISTRITO":"COORD. DISTRITAL 02","INEP":13030906,"SIGEAM":41,"TIPO":"NORMAL","REDE":"ESTADUAL","LATITUDE":-3.1382530000000002,"LONGITUDE":-59.992472999999997,"MUNICIPIO":"MANAUS"},"geometry":{"x":-59.992499999701977,"y":-3.1383000016212463}},{"attributes":{"FID":39,"ID":39,"ESCOLA":"ESCOLA ESTADUAL BALBINA MESTRINHO","ENDERECO":"AV MANICORE","NUM":"700","BAIRRO":"CACHOEIRINHA","ZONA":"ZONA SUL","CEP":69065100,"LOCAL":"URBANA","DISTRITO":"COORD. DISTRITAL 01","INEP":13027182,"SIGEAM":42,"TIPO":"NORMAL","REDE":"ESTADUAL","LATITUDE":-3.1276799999999998,"LONGITUDE":-60.002837,"MUNICIPIO":"MANAUS"},"geometry":{"x":-60.00279999896884,"y":-3.127700001001358}},{"attributes":{"FID":40,"ID":40,"ESCOLA":"ESCOLA ESTADUAL CARVALHO LEAL","ENDERECO":"RUA BORBA","NUM":"S/N","BAIRRO":"CACHOEIRINHA","ZONA":"ZONA SUL","CEP":69065030,"LOCAL":"URBANA","DISTRITO":"COORD. DISTRITAL 01","INEP":13030256,"SIGEAM":43,"TIPO":"NORMAL","REDE":"ESTADUAL","LATITUDE":-3.121299,"LONGITUDE":-60.004151,"MUNICIPIO":"MANAUS"},"geometry":{"x":-60.004200000315905,"y":-3.1213000006973743}},{"attributes":{"FID":41,"ID":41,"ESCOLA":"ESCOLA ESTADUAL EUCLYDES DA CUNHA","ENDERECO":"AV CARVALHO LEAL","NUM":"S/N","BAIRRO":"CACHOEIRINHA","ZONA":"ZONA SUL","CEP":69065000,"LOCAL":"URBANA","DISTRITO":"COORD. DISTRITAL 01","INEP":13027336,"SIGEAM":44,"TIPO":"NORMAL","REDE":"ESTADUAL","LATITUDE":-3.130363,"LONGITUDE":-60.006169999999997,"MUNICIPIO":"MANAUS"},"geometry":{"x":-60.00620000064373,"y":-3.1303999982774258}},{"attributes":{"FID":42,"ID":42,"ESCOLA":"ESCOLA ESTADUAL MAJOR SILVA COUTINHO","ENDERECO":"RUA CORONEL FERREIRA DE ARAUJO","NUM":"S/N","BAIRRO":"PETROPOLIS","ZONA":"ZONA SUL","CEP":69063000,"LOCAL":"URBANA","DISTRITO":"COORD. DISTRITAL 02","INEP":13030558,"SIGEAM":45,"TIPO":"NORMAL","REDE":"ESTADUAL","LATITUDE":-3.119669,"LONGITUDE":-59.992651000000002,"MUNICIPIO":"MANAUS"},"geometry":{"x":-59.99269999936223,"y":-3.1196999996900558}},{"attributes":{"FID":43,"ID":43,"ESCOLA":"ESCOLA ESTADUAL MILBURGES ARAUJO","ENDERECO":"RUA COUTO VALE","NUM":"S/N","BAIRRO":"RAIZ","ZONA":"ZONA SUL","CEP":69068030,"LOCAL":"URBANA","DISTRITO":"COORD. DISTRITAL 02","INEP":13029991,"SIGEAM":46,"TIPO":"NORMAL","REDE":"ESTADUAL","LATITUDE":-3.1232530000000001,"LONGITUDE":-59.995350999999999,"MUNICIPIO":"MANAUS"},"geometry":{"x":-59.995400000363588,"y":-3.1233000010251999}},{"attributes":{"FID":44,"ID":44,"ESCOLA":"ESCOLA ESTADUAL RUY ARAUJO","ENDERECO":"AV CARVALHO LEAL","NUM":"931","BAIRRO":"CACHOEIRINHA","ZONA":"ZONA SUL","CEP":69020120,"LOCAL":"URBANA","DISTRITO":"COORD. DISTRITAL 01","INEP":13027930,"SIGEAM":47,"TIPO":"NORMAL","REDE":"ESTADUAL","LATITUDE":-3.1276999999999999,"LONGITUDE":-60.006394,"MUNICIPIO":"MANAUS"},"geometry":{"x":-60.006400000303984,"y":-3.127700001001358}},{"attributes":{"FID":45,"ID":45,"ESCOLA":"ESCOLA ESTADUAL SENADOR CUNHA MELO","ENDERECO":"AV COSTA E SILVA","NUM":"S/N","BAIRRO":"RAIZ","ZONA":"ZONA SUL","CEP":69068100,"LOCAL":"URBANA","DISTRITO":"COORD. DISTRITAL 02","INEP":13030922,"SIGEAM":48,"TIPO":"NORMAL","REDE":"ESTADUAL","LATITUDE":-3.128717,"LONGITUDE":-59.999108999999997,"MUNICIPIO":"MANAUS"},"geometry":{"x":-59.999099999666214,"y":-3.1286999993026257}},{"attributes":{"FID":46,"ID":46,"ESCOLA":"ESCOLA ESTADUAL PRINCESA ISABEL","ENDERECO":"RUA RAMOS FERREIRA","NUM":"819","BAIRRO":"CENTRO","ZONA":"ZONA SUL","CEP":69010120,"LOCAL":"URBANA","DISTRITO":"COORD. DISTRITAL 01","INEP":13030779,"SIGEAM":49,"TIPO":"NORMAL","REDE":"ESTADUAL","LATITUDE":-3.1276640000000002,"LONGITUDE":-60.024430000000002,"MUNICIPIO":"MANAUS"},"geometry":{"x":-60.024399999529123,"y":-3.127700001001358}},{"attributes":{"FID":47,"ID":47,"ESCOLA":"ESCOLA ESTADUAL PROF EUNICE SERRANO TELLES DE SOUZA","ENDERECO":"RUA MONSENHOR COUTINHO","NUM":"301","BAIRRO":"CENTRO","ZONA":"ZONA SUL","CEP":69010110,"LOCAL":"URBANA","DISTRITO":"COORD. DISTRITAL 01","INEP":13030299,"SIGEAM":50,"TIPO":"NORMAL","REDE":"ESTADUAL","LATITUDE":-3.1286740000000002,"LONGITUDE":-60.026308999999998,"MUNICIPIO":"MANAUS"},"geometry":{"x":-60.026299998164177,"y":-3.1286999993026257}},{"attributes":{"FID":48,"ID":48,"ESCOLA":"ESCOLA ESTADUAL RIBEIRO DA CUNHA","ENDERECO":"RUA SILVA RAMOS","NUM":"S/N","BAIRRO":"CENTRO","ZONA":"ZONA SUL","CEP":69010180,"LOCAL":"URBANA","DISTRITO":"COORD. DISTRITAL 01","INEP":13030841,"SIGEAM":51,"TIPO":"NORMAL","REDE":"ESTADUAL","LATITUDE":-3.1236969999999999,"LONGITUDE":-60.023767999999997,"MUNICIPIO":"MANAUS"},"geometry":{"x":-60.023800000548363,"y":-3.1237000003457069}},{"attributes":{"FID":49,"ID":49,"ESCOLA":"INSTITUTO DE EDUCACAO DO AMAZONAS","ENDERECO":"RUA RAMOS FERREIRA CENTRO","NUM":"875","BAIRRO":"CENTRO","ZONA":"ZONA SUL","CEP":69010170,"LOCAL":"URBANA","DISTRITO":"COORD. DISTRITAL 01","INEP":13031899,"SIGEAM":52,"TIPO":"INTEG","REDE":"ESTADUAL","LATITUDE":-3.1275680000000001,"LONGITUDE":-60.023969000000001,"MUNICIPIO":"MANAUS"},"geometry":{"x":-60.024000000208616,"y":-3.1275999993085861}},{"attributes":{"FID":50,"ID":50,"ESCOLA":"COLEGIO AMAZONENSE DOM PEDRO II","ENDERECO":"AV SETE DE SETEMBRO","NUM":"S/N","BAIRRO":"CENTRO","ZONA":"ZONA SUL","CEP":69005141,"LOCAL":"URBANA","DISTRITO":"COORD. DISTRITAL 01","INEP":13026470,"SIGEAM":54,"TIPO":"NORMAL","REDE":"ESTADUAL","LATITUDE":-3.1345399999999999,"LONGITUDE":-60.021205000000002,"MUNICIPIO":"MANAUS"},"geometry":{"x":-60.021200001239777,"y":-3.1345000006258488}},{"attributes":{"FID":51,"ID":51,"ESCOLA":"COLEGIO BRASILEIRO PEDRO SILVESTRE","ENDERECO":"RUA 10 DE JULHO","NUM":"843","BAIRRO":"CENTRO","ZONA":"ZONA SUL","CEP":69010060,"LOCAL":"URBANA","DISTRITO":"COORD. DISTRITAL 01","INEP":13026550,"SIGEAM":55,"TIPO":"NORMAL","REDE":"ESTADUAL","LATITUDE":-3.1298910000000002,"LONGITUDE":-60.019880000000001,"MUNICIPIO":"MANAUS"},"geometry":{"x":-60.019900001585484,"y":-3.1299000009894371}},{"attributes":{"FID":52,"ID":52,"ESCOLA":"ESCOLA ESTADUAL BARAO DO RIO BRANCO","ENDERECO":"AV JOAQUIM NABUCO","NUM":"1152","BAIRRO":"CENTRO","ZONA":"ZONA SUL","CEP":69020030,"LOCAL":"URBANA","DISTRITO":"COORD. DISTRITAL 01","INEP":13030213,"SIGEAM":56,"TIPO":"NORMAL","REDE":"ESTADUAL","LATITUDE":-3.1314510000000002,"LONGITUDE":-60.018768999999999,"MUNICIPIO":"MANAUS"},"geometry":{"x":-60.018800001591444,"y":-3.1314999982714653}},{"attributes":{"FID":53,"ID":53,"ESCOLA":"ESCOLA ESTADUAL NILO PECANHA","ENDERECO":"AV JOAQUIM NABUCO","NUM":"336","BAIRRO":"CENTRO","ZONA":"ZONA SUL","CEP":69005080,"LOCAL":"URBANA","DISTRITO":"COORD. DISTRITAL 01","INEP":13030698,"SIGEAM":58,"TIPO":"NORMAL","REDE":"ESTADUAL","LATITUDE":-3.1178509999999999,"LONGITUDE":-60.026497999999997,"MUNICIPIO":"MANAUS"},"geometry":{"x":-60.026500001549721,"y":-3.1178999990224838}},{"attributes":{"FID":54,"ID":54,"ESCOLA":"ESCOLA ESTADUAL MANOEL MARCAL DE ARAUJO","ENDERECO":"AV PARINTINS","NUM":"832","BAIRRO":"CACHOEIRINHA","ZONA":"ZONA SUL","CEP":69065050,"LOCAL":"URBANA","DISTRITO":"COORD. DISTRITAL 01","INEP":13057871,"SIGEAM":62,"TIPO":"NORMAL","REDE":"ESTADUAL","LATITUDE":-3.1233930000000001,"LONGITUDE":-60.002116000000001,"MUNICIPIO":"MANAUS"},"geometry":{"x":-60.002099998295307,"y":-3.1233999989926815}},{"attributes":{"FID":55,"ID":55,"ESCOLA":"ESCOLA ESTADUAL PROF ANTENOR SARMENTO","ENDERECO":"RUA TAPAJOS","NUM":"S/N","BAIRRO":"CENTRO","ZONA":"ZONA SUL","CEP":69025140,"LOCAL":"URBANA","DISTRITO":"COORD. DISTRITAL 01","INEP":13031147,"SIGEAM":63,"TIPO":"NORMAL","REDE":"ESTADUAL","LATITUDE":-3.1275590000000002,"LONGITUDE":-60.023090000000003,"MUNICIPIO":"MANAUS"},"geometry":{"x":-60.02309999987483,"y":-3.1275999993085861}},{"attributes":{"FID":56,"ID":56,"ESCOLA":"ESCOLA ESTADUAL AUGUSTO CARNEIRO DOS SANTOS","ENDERECO":"AV JOAQUIM NABUCO","NUM":"2274","BAIRRO":"CENTRO","ZONA":"ZONA SUL","CEP":69020031,"LOCAL":"URBANA","DISTRITO":"COORD. DISTRITAL 01","INEP":13027174,"SIGEAM":64,"TIPO":"NORMAL","REDE":"ESTADUAL","LATITUDE":-3.1216629999999999,"LONGITUDE":-60.020681000000003,"MUNICIPIO":"MANAUS"},"geometry":{"x":-60.020700000226498,"y":-3.1217000000178814}},{"attributes":{"FID":57,"ID":57,"ESCOLA":"ESCOLA ESTADUAL DIOFANTO VIEIRA MONTEIRO","ENDERECO":"AV LOURENCO DA SILVA BRAGA","NUM":"S/N","BAIRRO":"CENTRO","ZONA":"ZONA SUL","CEP":69005015,"LOCAL":"URBANA","DISTRITO":"COORD. DISTRITAL 01","INEP":13027271,"SIGEAM":66,"TIPO":"NORMAL","REDE":"ESTADUAL","LATITUDE":-3.1369910000000001,"LONGITUDE":-60.015202000000002,"MUNICIPIO":"MANAUS"},"geometry":{"x":-60.0152000002563,"y":-3.136999998241663}},{"attributes":{"FID":58,"ID":58,"ESCOLA":"ESCOLA ESTADUAL FREI SILVIO VAGHEGGI","ENDERECO":"RUA TAPAJOS","NUM":"S/N","BAIRRO":"CENTRO","ZONA":"ZONA SUL","CEP":69025140,"LOCAL":"URBANA","DISTRITO":"COORD. DISTRITAL 01","INEP":13030310,"SIGEAM":67,"TIPO":"NORMAL","REDE":"ESTADUAL","LATITUDE":-3.1271300000000002,"LONGITUDE":-60.022804999999998,"MUNICIPIO":"MANAUS"},"geometry":{"x":-60.022799998521805,"y":-3.1270999982953072}},{"attributes":{"FID":59,"ID":59,"ESCOLA":"ESCOLA ESTADUAL DOM MILTON CORREA PEREIRA","ENDERECO":"AV PERIMETRAL NUCLEO","NUM":"11","BAIRRO":"CIDADE NOVA","ZONA":"ZONA NORTE","CEP":69095000,"LOCAL":"URBANA","DISTRITO":"COORD. DISTRITAL 06","INEP":13027255,"SIGEAM":69,"TIPO":"NORMAL","REDE":"ESTADUAL","LATITUDE":-3.0362559999999998,"LONGITUDE":-59.968820999999998,"MUNICIPIO":"MANAUS"},"geometry":{"x":-59.968800000846386,"y":-3.0362999998033047}},{"attributes":{"FID":60,"ID":60,"ESCOLA":"ESCOLA ESTADUAL ENG ARTHUR AMORIM","ENDERECO":"RUA CARIRE","NUM":"60","BAIRRO":"NOVO ALEIXO","ZONA":"ZONA NORTE","CEP":69049140,"LOCAL":"URBANA","DISTRITO":"COORD. DISTRITAL 06","INEP":13027310,"SIGEAM":70,"TIPO":"NORMAL","REDE":"ESTADUAL","LATITUDE":-3.0468679999999999,"LONGITUDE":-59.971806999999998,"MUNICIPIO":"MANAUS"},"geometry":{"x":-59.971799999475479,"y":-3.046900000423193}},{"attributes":{"FID":61,"ID":61,"ESCOLA":"ESCOLA ESTADUAL PROF LENINA FERRARO DA SILVA","ENDERECO":"RUA K","NUM":"S/N","BAIRRO":"CIDADE NOVA","ZONA":"ZONA NORTE","CEP":69097280,"LOCAL":"URBANA","DISTRITO":"COORD. DISTRITAL 06","INEP":13031104,"SIGEAM":71,"TIPO":"NORMAL","REDE":"ESTADUAL","LATITUDE":-3.0216980000000002,"LONGITUDE":-59.960071999999997,"MUNICIPIO":"MANAUS"},"geometry":{"x":-59.960099998861551,"y":-3.0216999985277653}},{"attributes":{"FID":62,"ID":62,"ESCOLA":"ESCOLA ESTADUAL OSMAR PEDROSA","ENDERECO":"RUA 253","NUM":"4","BAIRRO":"NOVO ALEIXO","ZONA":"ZONA NORTE","CEP":69097550,"LOCAL":"URBANA","DISTRITO":"COORD. DISTRITAL 06","INEP":13030728,"SIGEAM":72,"TIPO":"NORMAL","REDE":"ESTADUAL","LATITUDE":-3.0363639999999998,"LONGITUDE":-59.954810999999999,"MUNICIPIO":"MANAUS"},"geometry":{"x":-59.954799998551607,"y":-3.0364000014960766}},{"attributes":{"FID":63,"ID":63,"ESCOLA":"ESCOLA ESTADUAL PROFA HILDA DE AZEVEDO TRIBUZY","ENDERECO":"AV NOEL NUTELS","NUM":"S/N","BAIRRO":"CIDADE NOVA","ZONA":"ZONA NORTE","CEP":69095000,"LOCAL":"URBANA","DISTRITO":"COORD. DISTRITAL 06","INEP":13030817,"SIGEAM":73,"TIPO":"NORMAL","REDE":"ESTADUAL","LATITUDE":-3.0306519999999999,"LONGITUDE":-59.982159000000003,"MUNICIPIO":"MANAUS"},"geometry":{"x":-59.982200000435114,"y":-3.0306999981403351}},{"attributes":{"FID":64,"ID":64,"ESCOLA":"ESCOLA ESTADUAL SEBASTIAO NOROES","ENDERECO":"RUA Q","NUM":"S/N","BAIRRO":"NOVA CIDADE","ZONA":"ZONA NORTE","CEP":69095040,"LOCAL":"URBANA","DISTRITO":"COORD. DISTRITAL 07","INEP":13030892,"SIGEAM":74,"TIPO":"NORMAL","REDE":"ESTADUAL","LATITUDE":-3.019231,"LONGITUDE":-59.981239000000002,"MUNICIPIO":"MANAUS"},"geometry":{"x":-59.981199998408556,"y":-3.0192000009119511}},{"attributes":{"FID":65,"ID":65,"ESCOLA":"ESCOLA ESTADUAL SENADOR JOAO BOSCO RAMOS DE LIMA","ENDERECO":"AV NOEL NUTELS","NUM":"1601","BAIRRO":"CIDADE NOVA","ZONA":"ZONA NORTE","CEP":69095000,"LOCAL":"URBANA","DISTRITO":"COORD. DISTRITAL 06","INEP":13030914,"SIGEAM":75,"TIPO":"NORMAL","REDE":"ESTADUAL","LATITUDE":-3.0296560000000001,"LONGITUDE":-59.978850000000001,"MUNICIPIO":"MANAUS"},"geometry":{"x":-59.978799998760223,"y":-3.0296999998390675}},{"attributes":{"FID":66,"ID":66,"ESCOLA":"CENTRO EDUCACIONAL ARTHUR VIRGILIO FILHO","ENDERECO":"RUA NOSSA SENHORA DE FATIMA","NUM":"69","BAIRRO":"SANTA ETELVINA","ZONA":"ZONA NORTE","CEP":69059420,"LOCAL":"URBANA","DISTRITO":"COORD. DISTRITAL 07","INEP":13025767,"SIGEAM":76,"TIPO":"INTEG","REDE":"ESTADUAL","LATITUDE":-2.9861270000000002,"LONGITUDE":-60.009749999999997,"MUNICIPIO":"MANAUS"},"geometry":{"x":-60.009700000286102,"y":-2.9860999993979931}},{"attributes":{"FID":67,"ID":67,"ESCOLA":"ESCOLA ESTADUAL DES ANDRE VIDAL DE ARAUJO","ENDERECO":"AV TIMBIRAS","NUM":"S/N","BAIRRO":"CIDADE NOVA","ZONA":"ZONA NORTE","CEP":69090010,"LOCAL":"URBANA","DISTRITO":"COORD. DISTRITAL 06","INEP":13027123,"SIGEAM":77,"TIPO":"NORMAL","REDE":"ESTADUAL","LATITUDE":-3.0335359999999998,"LONGITUDE":-59.986874,"MUNICIPIO":"MANAUS"},"geometry":{"x":-59.986900001764297,"y":-3.033500000834465}},{"attributes":{"FID":68,"ID":68,"ESCOLA":"ESCOLA ESTADUAL DOM JOAO DE SOUZA LIMA","ENDERECO":"AV TIMBIRAS","NUM":"1154","BAIRRO":"CIDADE NOVA","ZONA":"ZONA NORTE","CEP":69094000,"LOCAL":"URBANA","DISTRITO":"COORD. DISTRITAL 06","INEP":13027247,"SIGEAM":78,"TIPO":"NORMAL","REDE":"ESTADUAL","LATITUDE":-3.0401479999999999,"LONGITUDE":-59.982166999999997,"MUNICIPIO":"MANAUS"},"geometry":{"x":-59.982200000435114,"y":-3.0401000007987022}},{"attributes":{"FID":69,"ID":69,"ESCOLA":"ESCOLA ESTADUAL DR JOSE MILTON BANDEIRA","ENDERECO":"RUA 7","NUM":"S/N","BAIRRO":"CIDADE NOVA","ZONA":"ZONA NORTE","CEP":69090747,"LOCAL":"URBANA","DISTRITO":"COORD. DISTRITAL 06","INEP":13027280,"SIGEAM":79,"TIPO":"NORMAL","REDE":"ESTADUAL","LATITUDE":-3.030608,"LONGITUDE":-59.999502,"MUNICIPIO":"MANAUS"},"geometry":{"x":-59.999499998986721,"y":-3.0306000001728535}},{"attributes":{"FID":70,"ID":70,"ESCOLA":"ESCOLA ESTADUAL FRANCISCA DE PAULA DE JESUS IZABEL","ENDERECO":"RUA 51","NUM":"S/N","BAIRRO":"CIDADE NOVA","ZONA":"ZONA NORTE","CEP":69097788,"LOCAL":"URBANA","DISTRITO":"COORD. DISTRITAL 06","INEP":13031082,"SIGEAM":80,"TIPO":"NORMAL","REDE":"ESTADUAL","LATITUDE":-3.0124620000000002,"LONGITUDE":-59.970075000000001,"MUNICIPIO":"MANAUS"},"geometry":{"x":-59.970100000500679,"y":-3.0124999992549419}},{"attributes":{"FID":71,"ID":71,"ESCOLA":"ESCOLA ESTADUAL HOMERO DE MIRANDA LEAO","ENDERECO":"AV ATROARIS","NUM":"S/N","BAIRRO":"CIDADE NOVA","ZONA":"ZONA NORTE","CEP":69020220,"LOCAL":"URBANA","DISTRITO":"COORD. DISTRITAL 06","INEP":13030400,"SIGEAM":81,"TIPO":"NORMAL","REDE":"ESTADUAL","LATITUDE":-3.020105,"LONGITUDE":-59.989130000000003,"MUNICIPIO":"MANAUS"},"geometry":{"x":-59.989100001752377,"y":-3.0201000012457371}},{"attributes":{"FID":72,"ID":72,"ESCOLA":"ESCOLA ESTADUAL INSPETORA DULCINEIA VARELA MOURA","ENDERECO":"RUA DO AYMORE","NUM":"220","BAIRRO":"COLONIA TERRA NOVA","ZONA":"ZONA NORTE","CEP":69020230,"LOCAL":"URBANA","DISTRITO":"COORD. DISTRITAL 07","INEP":13030426,"SIGEAM":82,"TIPO":"NORMAL","REDE":"ESTADUAL","LATITUDE":-3.0246230000000001,"LONGITUDE":-60.006892999999998,"MUNICIPIO":"MANAUS"},"geometry":{"x":-60.006900001317263,"y":-3.0245999991893768}},{"attributes":{"FID":73,"ID":73,"ESCOLA":"ESCOLA ESTADUAL MARIA DO CEU VAZ DOLIVEIRA","ENDERECO":"RUA ANTUERPIA ANTIGA RUA 05","NUM":"S/N","BAIRRO":"CIDADE NOVA","ZONA":"ZONA NORTE","CEP":69090773,"LOCAL":"URBANA","DISTRITO":"COORD. DISTRITAL 06","INEP":13030590,"SIGEAM":83,"TIPO":"NORMAL","REDE":"ESTADUAL","LATITUDE":-3.024079,"LONGITUDE":-60.000729,"MUNICIPIO":"MANAUS"},"geometry":{"x":-60.000700000673532,"y":-3.0240999981760979}},{"attributes":{"FID":74,"ID":74,"ESCOLA":"ESCOLA ESTADUAL PROF JOSE BERNARDINO LINDOSO","ENDERECO":"AV CORONEL SAVIO BELOTA","NUM":"600","BAIRRO":"NOVO ALEIXO","ZONA":"ZONA NORTE","CEP":69098270,"LOCAL":"URBANA","DISTRITO":"COORD. DISTRITAL 06","INEP":13030469,"SIGEAM":84,"TIPO":"NORMAL","REDE":"ESTADUAL","LATITUDE":-3.0375610000000002,"LONGITUDE":-59.956164000000001,"MUNICIPIO":"MANAUS"},"geometry":{"x":-59.956199999898672,"y":-3.0375999994575977}},{"attributes":{"FID":75,"ID":75,"ESCOLA":"ESCOLA ESTADUAL AGNELLO BITTENCOURT","ENDERECO":"RUA DO CAMPO","NUM":"S/N","BAIRRO":"SANTO AGOSTINHO","ZONA":"ZONA OESTE","CEP":69036660,"LOCAL":"URBANA","DISTRITO":"COORD. DISTRITAL 04","INEP":13030159,"SIGEAM":86,"TIPO":"NORMAL","REDE":"ESTADUAL","LATITUDE":-3.0879720000000002,"LONGITUDE":-60.065494000000001,"MUNICIPIO":"MANAUS"},"geometry":{"x":-60.065499998629093,"y":-3.0879999995231628}},{"attributes":{"FID":76,"ID":76,"ESCOLA":"ESCOLA ESTADUAL AMELIA BITTENCOURT CARDINALE","ENDERECO":"RUA 24 DE MAIO","NUM":"S/N","BAIRRO":"COMPENSA","ZONA":"ZONA OESTE","CEP":69035580,"LOCAL":"URBANA","DISTRITO":"COORD. DISTRITAL 04","INEP":13030981,"SIGEAM":87,"TIPO":"NORMAL","REDE":"ESTADUAL","LATITUDE":-3.104457,"LONGITUDE":-60.061227000000002,"MUNICIPIO":"MANAUS"},"geometry":{"x":-60.061200000345707,"y":-3.1044999994337559}},{"attributes":{"FID":77,"ID":77,"ESCOLA":"ESCOLA ESTADUAL BENJAMIN MAGALHAES BRANDAO","ENDERECO":"RUA BELO HORIZONTE","NUM":"S/N","BAIRRO":"COMPENSA","ZONA":"ZONA OESTE","CEP":69036100,"LOCAL":"URBANA","DISTRITO":"COORD. DISTRITAL 04","INEP":13030221,"SIGEAM":88,"TIPO":"NORMAL","REDE":"ESTADUAL","LATITUDE":-3.0990690000000001,"LONGITUDE":-60.062063999999999,"MUNICIPIO":"MANAUS"},"geometry":{"x":-60.062100000679493,"y":-3.0991000011563301}},{"attributes":{"FID":78,"ID":78,"ESCOLA":"ESCOLA ESTADUAL DUQUE DE CAXIAS","ENDERECO":"RUA BELEM","NUM":"219","BAIRRO":"COMPENSA","ZONA":"ZONA OESTE","CEP":69035000,"LOCAL":"URBANA","DISTRITO":"COORD. DISTRITAL 04","INEP":13030280,"SIGEAM":89,"TIPO":"NORMAL","REDE":"ESTADUAL","LATITUDE":-3.1074120000000001,"LONGITUDE":-60.049909,"MUNICIPIO":"MANAUS"},"geometry":{"x":-60.049899999052286,"y":-3.1074000000953674}},{"attributes":{"FID":79,"ID":79,"ESCOLA":"ESCOLA ESTADUAL ELDAH BITTON TELLES DA ROCHA","ENDERECO":"RUA T","NUM":"S/N","BAIRRO":"COMPENSA","ZONA":"ZONA OESTE","CEP":69035350,"LOCAL":"URBANA","DISTRITO":"COORD. DISTRITAL 04","INEP":13029975,"SIGEAM":90,"TIPO":"NORMAL","REDE":"ESTADUAL","LATITUDE":-3.104155,"LONGITUDE":-60.063581999999997,"MUNICIPIO":"MANAUS"},"geometry":{"x":-60.06359999999404,"y":-3.1042000018060207}},{"attributes":{"FID":80,"ID":80,"ESCOLA":"ESCOLA ESTADUAL SENADOR FLAVIO DA COSTA BRITO","ENDERECO":"RUA SEBASTIAO ROMANO","NUM":"382","BAIRRO":"COMPENSA","ZONA":"ZONA OESTE","CEP":69036220,"LOCAL":"URBANA","DISTRITO":"COORD. DISTRITAL 04","INEP":13031180,"SIGEAM":91,"TIPO":"NORMAL","REDE":"ESTADUAL","LATITUDE":-3.0985209999999999,"LONGITUDE":-60.059505999999999,"MUNICIPIO":"MANAUS"},"geometry":{"x":-60.059500001370907,"y":-3.0984999984502792}},{"attributes":{"FID":81,"ID":81,"ESCOLA":"ESCOLA ESTADUAL JULIA BITTENCOURT","ENDERECO":"AV BRASIL","NUM":"2845","BAIRRO":"COMPENSA","ZONA":"ZONA OESTE","CEP":69036110,"LOCAL":"URBANA","DISTRITO":"COORD. DISTRITAL 04","INEP":13030485,"SIGEAM":92,"TIPO":"NORMAL","REDE":"ESTADUAL","LATITUDE":-3.1088290000000001,"LONGITUDE":-60.051606999999997,"MUNICIPIO":"MANAUS"},"geometry":{"x":-60.051600001752377,"y":-3.1088000014424324}},{"attributes":{"FID":82,"ID":82,"ESCOLA":"ESCOLA ESTADUAL PE PEDRO GISLANDY","ENDERECO":"RUA BELO HORIZONTE","NUM":"S/N","BAIRRO":"COMPENSA","ZONA":"ZONA OESTE","CEP":69036100,"LOCAL":"URBANA","DISTRITO":"COORD. DISTRITAL 04","INEP":13030736,"SIGEAM":93,"TIPO":"NORMAL","REDE":"ESTADUAL","LATITUDE":-3.102703,"LONGITUDE":-60.055985,"MUNICIPIO":"MANAUS"},"geometry":{"x":-60.056000001728535,"y":-3.1026999987661839}},{"attributes":{"FID":83,"ID":83,"ESCOLA":"ESCOLA ESTADUAL WALDEMIRO PERES LUSTOZA","ENDERECO":"RUA ALBERTO RANGEL","NUM":"33","BAIRRO":"COMPENSA","ZONA":"ZONA OESTE","CEP":69036110,"LOCAL":"URBANA","DISTRITO":"COORD. DISTRITAL 04","INEP":13030965,"SIGEAM":94,"TIPO":"NORMAL","REDE":"ESTADUAL","LATITUDE":-3.1045150000000001,"LONGITUDE":-60.065469,"MUNICIPIO":"MANAUS"},"geometry":{"x":-60.065499998629093,"y":-3.1044999994337559}},{"attributes":{"FID":84,"ID":84,"ESCOLA":"ESCOLA ESTADUAL PROF ARISTOTELES COMTE DE ALENCAR","ENDERECO":"RUA MARQUESA DE SANTOS","NUM":"500","BAIRRO":"COROADO","ZONA":"ZONA LESTE","CEP":69080000,"LOCAL":"URBANA","DISTRITO":"COORD. DISTRITAL 05","INEP":13030191,"SIGEAM":95,"TIPO":"NORMAL","REDE":"ESTADUAL","LATITUDE":-3.0937229999999998,"LONGITUDE":-59.981093999999999,"MUNICIPIO":"MANAUS"},"geometry":{"x":-59.981100000441074,"y":-3.093699999153614}},{"attributes":{"FID":85,"ID":85,"ESCOLA":"ESCOLA ESTADUAL CACILDA BRAULE PINTO","ENDERECO":"RUA SAO PEDRO","NUM":"S/N","BAIRRO":"COROADO","ZONA":"ZONA LESTE","CEP":69080500,"LOCAL":"URBANA","DISTRITO":"COORD. DISTRITAL 05","INEP":13030248,"SIGEAM":96,"TIPO":"NORMAL","REDE":"ESTADUAL","LATITUDE":-3.090938,"LONGITUDE":-59.983348999999997,"MUNICIPIO":"MANAUS"},"geometry":{"x":-59.983300000429153,"y":-3.0909000001847744}},{"attributes":{"FID":86,"ID":86,"ESCOLA":"ESCOLA ESTADUAL DEP JOSUE CLAUDIO DE SOUZA","ENDERECO":"AV BEIRA RIO","NUM":"S/N","BAIRRO":"COROADO","ZONA":"ZONA LESTE","CEP":69082660,"LOCAL":"URBANA","DISTRITO":"COORD. DISTRITAL 05","INEP":13031058,"SIGEAM":97,"TIPO":"NORMAL","REDE":"ESTADUAL","LATITUDE":-3.0953550000000001,"LONGITUDE":-59.981749999999998,"MUNICIPIO":"MANAUS"},"geometry":{"x":-59.981699999421835,"y":-3.0954000018537045}},{"attributes":{"FID":87,"ID":87,"ESCOLA":"ESCOLA ESTADUAL JOSE BENTES MONTEIRO","ENDERECO":"RUA 7","NUM":"S/N","BAIRRO":"ALEIXO","ZONA":"ZONA CENTRO-SUL","CEP":69089082,"LOCAL":"URBANA","DISTRITO":"COORD. DISTRITAL 03","INEP":13027484,"SIGEAM":98,"TIPO":"NORMAL","REDE":"ESTADUAL","LATITUDE":-3.102033,"LONGITUDE":-59.999893,"MUNICIPIO":"MANAUS"},"geometry":{"x":-59.999899998307228,"y":-3.1020000018179417}},{"attributes":{"FID":88,"ID":88,"ESCOLA":"ESCOLA ESTADUAL PROF MARIA ARMINDA GUIMARAES DE ANDRADE","ENDERECO":"RUA PEDRO TEIXEIRA","NUM":"500","BAIRRO":"COROADO","ZONA":"ZONA LESTE","CEP":69082740,"LOCAL":"URBANA","DISTRITO":"COORD. DISTRITAL 05","INEP":13030574,"SIGEAM":99,"TIPO":"NORMAL","REDE":"ESTADUAL","LATITUDE":-3.0878930000000002,"LONGITUDE":-59.978484999999999,"MUNICIPIO":"MANAUS"},"geometry":{"x":-59.978500001132488,"y":-3.0879000015556812}},{"attributes":{"FID":89,"ID":89,"ESCOLA":"ESCOLA ESTADUAL PROF MYRTHES MARQUES TRIGUEIRO","ENDERECO":"AV BEIRA MAR","NUM":"82","BAIRRO":"COROADO","ZONA":"ZONA LESTE","CEP":69080030,"LOCAL":"URBANA","DISTRITO":"COORD. DISTRITAL 05","INEP":13030647,"SIGEAM":100,"TIPO":"NORMAL","REDE":"ESTADUAL","LATITUDE":-3.0889030000000002,"LONGITUDE":-59.981642999999998,"MUNICIPIO":"MANAUS"},"geometry":{"x":-59.981600001454353,"y":-3.0888999998569489}},{"attributes":{"FID":90,"ID":90,"ESCOLA":"ESCOLA ESTADUAL PROF REINALDO THOMPSON","ENDERECO":"RUA MARQUESA DE SANTOS","NUM":"S/N","BAIRRO":"COROADO","ZONA":"ZONA LESTE","CEP":69082800,"LOCAL":"URBANA","DISTRITO":"COORD. DISTRITAL 05","INEP":13027905,"SIGEAM":101,"TIPO":"NORMAL","REDE":"ESTADUAL","LATITUDE":-3.0934919999999999,"LONGITUDE":-59.982894000000002,"MUNICIPIO":"MANAUS"},"geometry":{"x":-59.982900001108646,"y":-3.0934999994933605}},{"attributes":{"FID":91,"ID":91,"ESCOLA":"ESCOLA ESTADUAL SANT ANA","ENDERECO":"AV ANDRE ARAUJO","NUM":"2290","BAIRRO":"PETROPOLIS","ZONA":"ZONA SUL","CEP":69060000,"LOCAL":"URBANA","DISTRITO":"COORD. DISTRITAL 02","INEP":13027956,"SIGEAM":102,"TIPO":"NORMAL","REDE":"ESTADUAL","LATITUDE":-3.0981830000000001,"LONGITUDE":-59.992666,"MUNICIPIO":"MANAUS"},"geometry":{"x":-59.99269999936223,"y":-3.0982000008225441}},{"attributes":{"FID":92,"ID":92,"ESCOLA":"ESCOLA ESTADUAL ALMIRANTE ERNESTO MELLO BAPTISTA","ENDERECO":"RUA H","NUM":"S/N","BAIRRO":"VILA BURITI","ZONA":"ZONA SUL","CEP":69072095,"LOCAL":"URBANA","DISTRITO":"COORD. DISTRITAL 02","INEP":13030183,"SIGEAM":103,"TIPO":"NORMAL","REDE":"ESTADUAL","LATITUDE":-3.136139,"LONGITUDE":-59.949489,"MUNICIPIO":"MANAUS"},"geometry":{"x":-59.949499998241663,"y":-3.1361000016331673}},{"attributes":{"FID":93,"ID":93,"ESCOLA":"ESCOLA ESTADUAL ESTELITA TAPAJOS","ENDERECO":"RUA MANOEL URBANO","NUM":"S/N","BAIRRO":"EDUCANDOS","ZONA":"ZONA SUL","CEP":69070120,"LOCAL":"URBANA","DISTRITO":"COORD. DISTRITAL 02","INEP":13027328,"SIGEAM":104,"TIPO":"NORMAL","REDE":"ESTADUAL","LATITUDE":-3.1423739999999998,"LONGITUDE":-60.014735999999999,"MUNICIPIO":"MANAUS"},"geometry":{"x":-60.014699999243021,"y":-3.142400000244379}},{"attributes":{"FID":94,"ID":94,"ESCOLA":"ESCOLA ESTADUAL ISAAC BENZECRY","ENDERECO":"RUA VIRIATO CORREIA","NUM":"500","BAIRRO":"COLONIA OLIVEIRA MACHADO","ZONA":"ZONA SUL","CEP":69070780,"LOCAL":"URBANA","DISTRITO":"COORD. DISTRITAL 02","INEP":13027425,"SIGEAM":105,"TIPO":"INTEG","REDE":"ESTADUAL","LATITUDE":-3.1463009999999998,"LONGITUDE":-60.004941000000002,"MUNICIPIO":"MANAUS"},"geometry":{"x":-60.004900000989437,"y":-3.1462999992072582}},{"attributes":{"FID":95,"ID":95,"ESCOLA":"ESCOLA ESTADUAL LEOPOLDO NEVES","ENDERECO":"AV LEOPOLDO NEVES","NUM":"39","BAIRRO":"MORRO DA LIBERDADE","ZONA":"ZONA SUL","CEP":69074510,"LOCAL":"URBANA","DISTRITO":"COORD. DISTRITAL 02","INEP":13030507,"SIGEAM":106,"TIPO":"NORMAL","REDE":"ESTADUAL","LATITUDE":-3.1371000000000002,"LONGITUDE":-60.005768000000003,"MUNICIPIO":"MANAUS"},"geometry":{"x":-60.005800001323223,"y":-3.1370999999344349}},{"attributes":{"FID":96,"ID":96,"ESCOLA":"ESCOLA ESTADUAL MACHADO DE ASSIS","ENDERECO":"RUA AMANCIO DE MIRANDA","NUM":"S/N","BAIRRO":"EDUCANDOS","ZONA":"ZONA SUL","CEP":69070000,"LOCAL":"URBANA","DISTRITO":"COORD. DISTRITAL 02","INEP":13030540,"SIGEAM":107,"TIPO":"INTEG","REDE":"ESTADUAL","LATITUDE":-3.1426780000000001,"LONGITUDE":-60.014927,"MUNICIPIO":"MANAUS"},"geometry":{"x":-60.014899998903275,"y":-3.1427000015974045}},{"attributes":{"FID":97,"ID":97,"ESCOLA":"ESCOLA ESTADUAL MESTRE OTILIO","ENDERECO":"TRAVESSA AFONSO QUARESMA","NUM":"S/N","BAIRRO":"COLONIA OLIVEIRA MACHADO","ZONA":"ZONA SUL","CEP":69070770,"LOCAL":"URBANA","DISTRITO":"COORD. DISTRITAL 02","INEP":13027654,"SIGEAM":108,"TIPO":"NORMAL","REDE":"ESTADUAL","LATITUDE":-3.1465990000000001,"LONGITUDE":-59.998890000000003,"MUNICIPIO":"MANAUS"},"geometry":{"x":-59.99890000000596,"y":-3.1466000005602837}},{"attributes":{"FID":98,"ID":98,"ESCOLA":"ESCOLA ESTADUAL MONTEIRO DE SOUZA","ENDERECO":"AV LEOPOLDO PERES","NUM":"S/N","BAIRRO":"EDUCANDOS","ZONA":"ZONA SUL","CEP":69070250,"LOCAL":"URBANA","DISTRITO":"COORD. DISTRITAL 02","INEP":13030620,"SIGEAM":109,"TIPO":"NORMAL","REDE":"ESTADUAL","LATITUDE":-3.1384880000000002,"LONGITUDE":-60.008262000000002,"MUNICIPIO":"MANAUS"},"geometry":{"x":-60.008299998939037,"y":-3.1385000012814999}},{"attributes":{"FID":99,"ID":99,"ESCOLA":"ESCOLA ESTADUAL PROF DIANA PINHEIRO","ENDERECO":"AV PRESIDENTE KENNEDY","NUM":"S/N","BAIRRO":"SANTA LUZIA","ZONA":"ZONA SUL","CEP":69074000,"LOCAL":"URBANA","DISTRITO":"COORD. DISTRITAL 02","INEP":13030809,"SIGEAM":111,"TIPO":"NORMAL","REDE":"ESTADUAL","LATITUDE":-3.1414770000000001,"LONGITUDE":-60.005237999999999,"MUNICIPIO":"MANAUS"},"geometry":{"x":-60.005199998617172,"y":-3.141499999910593}},{"attributes":{"FID":100,"ID":100,"ESCOLA":"ESCOLA ESTADUAL ALFREDO CAMPOS","ENDERECO":"RUA CARLOS DRUMOND DE ANDRADE","NUM":"167","BAIRRO":"JAPIIM","ZONA":"ZONA SUL","CEP":69077778,"LOCAL":"URBANA","DISTRITO":"COORD. DISTRITAL 02","INEP":13030175,"SIGEAM":114,"TIPO":"NORMAL","REDE":"ESTADUAL","LATITUDE":-3.1030760000000002,"LONGITUDE":-59.964455000000001,"MUNICIPIO":"MANAUS"},"geometry":{"x":-59.964499998837709,"y":-3.1031000018119812}},{"attributes":{"FID":101,"ID":101,"ESCOLA":"ESCOLA ESTADUAL JOSE CARLOS MESTRINHO","ENDERECO":"RUA DA PAZ","NUM":"31","BAIRRO":"CRESPO","ZONA":"ZONA SUL","CEP":69077000,"LOCAL":"URBANA","DISTRITO":"COORD. DISTRITAL 02","INEP":13031040,"SIGEAM":115,"TIPO":"INTEG","REDE":"ESTADUAL","LATITUDE":-3.1278800000000002,"LONGITUDE":-59.986193999999998,"MUNICIPIO":"MANAUS"},"geometry":{"x":-59.986200001090765,"y":-3.1279000006616116}},{"attributes":{"FID":102,"ID":102,"ESCOLA":"ESCOLA ESTADUAL LUCINDA FELIX DE AZEVEDO","ENDERECO":"RUA 52","NUM":"S/N","BAIRRO":"JAPIIM","ZONA":"ZONA SUL","CEP":69077520,"LOCAL":"URBANA","DISTRITO":"COORD. DISTRITAL 02","INEP":13030523,"SIGEAM":116,"TIPO":"NORMAL","REDE":"ESTADUAL","LATITUDE":-3.1101299999999998,"LONGITUDE":-59.986161000000003,"MUNICIPIO":"MANAUS"},"geometry":{"x":-59.986200001090765,"y":-3.1101000010967255}},{"attributes":{"FID":103,"ID":103,"ESCOLA":"ESCOLA ESTADUAL LUIS DE CAMOES","ENDERECO":"RUA 19","NUM":"S/N","BAIRRO":"JAPIIM","ZONA":"ZONA SUL","CEP":69077200,"LOCAL":"URBANA","DISTRITO":"COORD. DISTRITAL 02","INEP":13030531,"SIGEAM":117,"TIPO":"NORMAL","REDE":"ESTADUAL","LATITUDE":-3.1151010000000001,"LONGITUDE":-59.983012000000002,"MUNICIPIO":"MANAUS"},"geometry":{"x":-59.982999999076128,"y":-3.1151000000536442}},{"attributes":{"FID":104,"ID":104,"ESCOLA":"ESCOLA ESTADUAL NATHALIA UCHOA","ENDERECO":"AV PERIMETRAL D","NUM":"S/N","BAIRRO":"JAPIIM","ZONA":"ZONA SUL","CEP":69076830,"LOCAL":"URBANA","DISTRITO":"COORD. DISTRITAL 02","INEP":13030680,"SIGEAM":118,"TIPO":"NORMAL","REDE":"ESTADUAL","LATITUDE":-3.1121620000000001,"LONGITUDE":-59.974477,"MUNICIPIO":"MANAUS"},"geometry":{"x":-59.974500000476837,"y":-3.1121999993920326}},{"attributes":{"FID":105,"ID":105,"ESCOLA":"ESCOLA ESTADUAL PROF ONDINA DE PAULA RIBEIRO","ENDERECO":"AV JORGE BIVAQUA","NUM":"S/N","BAIRRO":"JAPIIM","ZONA":"ZONA SUL","CEP":69068100,"LOCAL":"URBANA","DISTRITO":"COORD. DISTRITAL 02","INEP":13027727,"SIGEAM":119,"TIPO":"NORMAL","REDE":"ESTADUAL","LATITUDE":-3.108619,"LONGITUDE":-59.984524,"MUNICIPIO":"MANAUS"},"geometry":{"x":-59.984499998390675,"y":-3.1086000017821789}},{"attributes":{"FID":106,"ID":106,"ESCOLA":"ESCOLA ESTADUAL PROF BENICIO LEAO","ENDERECO":"RUA POLIVALENTE","NUM":"S/N","BAIRRO":"JAPIIM","ZONA":"ZONA SUL","CEP":69078260,"LOCAL":"URBANA","DISTRITO":"COORD. DISTRITAL 02","INEP":13027794,"SIGEAM":120,"TIPO":"NORMAL","REDE":"ESTADUAL","LATITUDE":-3.1079509999999999,"LONGITUDE":-59.983955000000002,"MUNICIPIO":"MANAUS"},"geometry":{"x":-59.984000001102686,"y":-3.107999999076128}},{"attributes":{"FID":107,"ID":107,"ESCOLA":"CENTRO EDUCACIONAL BERENICE MARTINS","ENDERECO":"RUA ENCONTROS DAS AGUAS","NUM":"S/N","BAIRRO":"MAUAZINHO","ZONA":"ZONA LESTE","CEP":69075300,"LOCAL":"URBANA","DISTRITO":"COORD. DISTRITAL 05","INEP":13030019,"SIGEAM":121,"TIPO":"NORMAL","REDE":"ESTADUAL","LATITUDE":-3.1274410000000001,"LONGITUDE":-59.937156000000002,"MUNICIPIO":"MANAUS"},"geometry":{"x":-59.937199998646975,"y":-3.1273999996483326}},{"attributes":{"FID":108,"ID":108,"ESCOLA":"ESCOLA ESTADUAL PROF DJALMA DA CUNHA","ENDERECO":"AV GENERAL RODRIGO OTAVIO","NUM":"1600","BAIRRO":"PETROPOLIS","ZONA":"ZONA SUL","CEP":69077000,"LOCAL":"URBANA","DISTRITO":"COORD. DISTRITAL 02","INEP":13027816,"SIGEAM":122,"TIPO":"INTEG","REDE":"ESTADUAL","LATITUDE":-3.1012559999999998,"LONGITUDE":-59.983745999999996,"MUNICIPIO":"MANAUS"},"geometry":{"x":-59.98369999974966,"y":-3.1013000011444092}},{"attributes":{"FID":109,"ID":109,"ESCOLA":"ESCOLA ESTADUAL ADERSON DE MENEZES","ENDERECO":"RUA 26","NUM":"S/N","BAIRRO":"PARQUE 10 DE NOVEMBRO","ZONA":"ZONA CENTRO-SUL","CEP":69055430,"LOCAL":"URBANA","DISTRITO":"COORD. DISTRITAL 03","INEP":13030140,"SIGEAM":123,"TIPO":"NORMAL","REDE":"ESTADUAL","LATITUDE":-3.0804649999999998,"LONGITUDE":-60.010351999999997,"MUNICIPIO":"MANAUS"},"geometry":{"x":-60.010400000959635,"y":-3.0804999992251396}},{"attributes":{"FID":110,"ID":110,"ESCOLA":"ESCOLA ESTADUAL PROF ALICE SALERNO GOMES DE LIMA","ENDERECO":"RUA 7","NUM":"12","BAIRRO":"PARQUE 10 DE NOVEMBRO","ZONA":"ZONA CENTRO-SUL","CEP":69055250,"LOCAL":"URBANA","DISTRITO":"COORD. DISTRITAL 03","INEP":13055216,"SIGEAM":124,"TIPO":"NORMAL","REDE":"ESTADUAL","LATITUDE":-3.086408,"LONGITUDE":-60.014653000000003,"MUNICIPIO":"MANAUS"},"geometry":{"x":-60.014699999243021,"y":-3.0863999985158443}},{"attributes":{"FID":111,"ID":111,"ESCOLA":"ESCOLA ESTADUAL ALMIRANTE BARROSO","ENDERECO":"VILA AMAZONAS","NUM":"S/N","BAIRRO":"NOSSA SENHORA DAS GRACAS","ZONA":"ZONA CENTRO-SUL","CEP":69055240,"LOCAL":"URBANA","DISTRITO":"COORD. DISTRITAL 03","INEP":13027093,"SIGEAM":125,"TIPO":"INTEG","REDE":"ESTADUAL","LATITUDE":-3.097464,"LONGITUDE":-60.014870999999999,"MUNICIPIO":"MANAUS"},"geometry":{"x":-60.014899998903275,"y":-3.0975000001490116}},{"attributes":{"FID":112,"ID":112,"ESCOLA":"ESCOLA ESTADUAL ALTAIR SEVERIANO NUNES","ENDERECO":"RUA ALTAIR S NUNES","NUM":"S/N","BAIRRO":"PARQUE 10 DE NOVEMBRO","ZONA":"ZONA CENTRO-SUL","CEP":69050550,"LOCAL":"URBANA","DISTRITO":"COORD. DISTRITAL 03","INEP":13027107,"SIGEAM":126,"TIPO":"INTEG","REDE":"ESTADUAL","LATITUDE":-3.0904600000000002,"LONGITUDE":-60.017789999999998,"MUNICIPIO":"MANAUS"},"geometry":{"x":-60.017799999564886,"y":-3.0905000008642673}},{"attributes":{"FID":113,"ID":113,"ESCOLA":"ESCOLA ESTADUAL SIMON BOLIVAR","ENDERECO":"RUA BELO HORIZONTE","NUM":"1449","BAIRRO":"ALEIXO","ZONA":"ZONA CENTRO-SUL","CEP":69057060,"LOCAL":"URBANA","DISTRITO":"COORD. DISTRITAL 03","INEP":13027522,"SIGEAM":127,"TIPO":"NORMAL","REDE":"ESTADUAL","LATITUDE":-3.0976170000000001,"LONGITUDE":-60.006255000000003,"MUNICIPIO":"MANAUS"},"geometry":{"x":-60.006299998611212,"y":-3.0976000018417835}},{"attributes":{"FID":114,"ID":114,"ESCOLA":"ESCOLA ESTADUAL MENINO JESUS DE PRAGA","ENDERECO":"RUA EDUARDO RIBEIRO","NUM":"16","BAIRRO":"CHAPADA","ZONA":"ZONA CENTRO-SUL","CEP":69050060,"LOCAL":"URBANA","DISTRITO":"COORD. DISTRITAL 03","INEP":13030612,"SIGEAM":129,"TIPO":"NORMAL","REDE":"ESTADUAL","LATITUDE":-3.0901900000000002,"LONGITUDE":-60.025649999999999,"MUNICIPIO":"MANAUS"},"geometry":{"x":-60.025600001215935,"y":-3.0901999995112419}},{"attributes":{"FID":115,"ID":115,"ESCOLA":"ESCOLA ESTADUAL PROF LEONILIA MARINHO","ENDERECO":"RUA 7","NUM":"S/N","BAIRRO":"PARQUE 10 DE NOVEMBRO","ZONA":"ZONA CENTRO-SUL","CEP":69055250,"LOCAL":"URBANA","DISTRITO":"COORD. DISTRITAL 03","INEP":13030493,"SIGEAM":130,"TIPO":"NORMAL","REDE":"ESTADUAL","LATITUDE":-3.0864669999999998,"LONGITUDE":-60.015112999999999,"MUNICIPIO":"MANAUS"},"geometry":{"x":-60.015099998563528,"y":-3.0865000002086163}},{"attributes":{"FID":116,"ID":116,"ESCOLA":"ESCOLA ESTADUAL SANTA TEREZINHA","ENDERECO":"AV EFIGENIO SALES BC SANTO ANTONIO","NUM":"S/N","BAIRRO":"ADRIANOPOLIS","ZONA":"ZONA CENTRO-SUL","CEP":69060020,"LOCAL":"URBANA","DISTRITO":"COORD. DISTRITAL 03","INEP":13027948,"SIGEAM":131,"TIPO":"INTEG","REDE":"ESTADUAL","LATITUDE":-3.0889090000000001,"LONGITUDE":-60.005083999999997,"MUNICIPIO":"MANAUS"},"geometry":{"x":-60.005100000649691,"y":-3.0888999998569489}},{"attributes":{"FID":117,"ID":117,"ESCOLA":"ESCOLA ESTADUAL FARIAS BRITTO","ENDERECO":"RUA SANTA IZABEL","NUM":"S/N","BAIRRO":"CENTRO","ZONA":"ZONA SUL","CEP":69020150,"LOCAL":"URBANA","DISTRITO":"COORD. DISTRITAL 01","INEP":13027344,"SIGEAM":132,"TIPO":"NORMAL","REDE":"ESTADUAL","LATITUDE":-3.1301030000000001,"LONGITUDE":-60.012227000000003,"MUNICIPIO":"MANAUS"},"geometry":{"x":-60.012200001627207,"y":-3.1301000006496906}},{"attributes":{"FID":118,"ID":118,"ESCOLA":"ESCOLA ESTADUAL LUIZINHA NASCIMENTO","ENDERECO":"AV TARUMA","NUM":"S/N","BAIRRO":"PRACA 14 DE JANEIRO","ZONA":"ZONA SUL","CEP":69020440,"LOCAL":"URBANA","DISTRITO":"COORD. DISTRITAL 01","INEP":13027549,"SIGEAM":133,"TIPO":"NORMAL","REDE":"ESTADUAL","LATITUDE":-3.122992,"LONGITUDE":-60.015276999999998,"MUNICIPIO":"MANAUS"},"geometry":{"x":-60.015299998223782,"y":-3.1229999996721745}},{"attributes":{"FID":119,"ID":119,"ESCOLA":"ESCOLA ESTADUAL PLACIDO SERRANO","ENDERECO":"RUA EMILIO MOREIRA","NUM":"S/N","BAIRRO":"PRACA 14 DE JANEIRO","ZONA":"ZONA SUL","CEP":69020040,"LOCAL":"URBANA","DISTRITO":"COORD. DISTRITAL 01","INEP":13030760,"SIGEAM":134,"TIPO":"NORMAL","REDE":"ESTADUAL","LATITUDE":-3.1207370000000001,"LONGITUDE":-60.015008999999999,"MUNICIPIO":"MANAUS"},"geometry":{"x":-60.015000000596046,"y":-3.1207000017166138}},{"attributes":{"FID":120,"ID":120,"ESCOLA":"ESCOLA ESTADUAL 1 DE MAIO","ENDERECO":"RUA DUQUE DE CAXIAS","NUM":"1856","BAIRRO":"PRACA 14 DE JANEIRO","ZONA":"ZONA SUL","CEP":69020141,"LOCAL":"URBANA","DISTRITO":"COORD. DISTRITAL 01","INEP":13027042,"SIGEAM":135,"TIPO":"NORMAL","REDE":"ESTADUAL","LATITUDE":-3.1190129999999998,"LONGITUDE":-60.011496000000001,"MUNICIPIO":"MANAUS"},"geometry":{"x":-60.011500000953674,"y":-3.1189999990165234}},{"attributes":{"FID":121,"ID":121,"ESCOLA":"ESCOLA ESTADUAL SANTA LUZIA","ENDERECO":"RUA RAMOS FERREIRA","NUM":"1925","BAIRRO":"PRACA 14 DE JANEIRO","ZONA":"ZONA SUL","CEP":69020080,"LOCAL":"URBANA","DISTRITO":"COORD. DISTRITAL 01","INEP":13030868,"SIGEAM":136,"TIPO":"NORMAL","REDE":"ESTADUAL","LATITUDE":-3.1281759999999998,"LONGITUDE":-60.014645000000002,"MUNICIPIO":"MANAUS"},"geometry":{"x":-60.014600001275539,"y":-3.1281999982893467}},{"attributes":{"FID":122,"ID":122,"ESCOLA":"COLEGIO MILITAR DA POLICIA MILITAR DO AMAZONAS","ENDERECO":"RUA CODAJAS","NUM":"S/N","BAIRRO":"PETROPOLIS","ZONA":"ZONA SUL","CEP":69065130,"LOCAL":"URBANA","DISTRITO":"COORD. DISTRITAL 02","INEP":13026577,"SIGEAM":137,"TIPO":"NORMAL","REDE":"ESTADUAL","LATITUDE":-3.1189930000000001,"LONGITUDE":-60.000182000000002,"MUNICIPIO":"MANAUS"},"geometry":{"x":-60.000199999660254,"y":-3.1189999990165234}},{"attributes":{"FID":123,"ID":123,"ESCOLA":"ESCOLA ESTADUAL ANGELO RAMAZZOTTI","ENDERECO":"PRACA NOSSA SENHORA DE NAZARE","NUM":"S/N","BAIRRO":"ADRIANOPOLIS","ZONA":"ZONA CENTRO-SUL","CEP":69057450,"LOCAL":"URBANA","DISTRITO":"COORD. DISTRITAL 03","INEP":13027131,"SIGEAM":138,"TIPO":"NORMAL","REDE":"ESTADUAL","LATITUDE":-3.1107070000000001,"LONGITUDE":-60.012464000000001,"MUNICIPIO":"MANAUS"},"geometry":{"x":-60.012499999254942,"y":-3.110700000077486}},{"attributes":{"FID":124,"ID":124,"ESCOLA":"ESCOLA ESTADUAL GETULIO VARGAS","ENDERECO":"RUA MARCIANO ARMOND","NUM":"S/N","BAIRRO":"SAO FRANCISCO","ZONA":"ZONA SUL","CEP":69057030,"LOCAL":"URBANA","DISTRITO":"COORD. DISTRITAL 01","INEP":13030345,"SIGEAM":139,"TIPO":"NORMAL","REDE":"ESTADUAL","LATITUDE":-3.1159469999999998,"LONGITUDE":-60.007336000000002,"MUNICIPIO":"MANAUS"},"geometry":{"x":-60.00730000063777,"y":-3.1158999986946583}},{"attributes":{"FID":125,"ID":125,"ESCOLA":"ESCOLA ESTADUAL HELENA ARAUJO","ENDERECO":"RUA CARVALHO P DE ANDRADE","NUM":"S/N","BAIRRO":"SAO FRANCISCO","ZONA":"ZONA SUL","CEP":69079270,"LOCAL":"URBANA","DISTRITO":"COORD. DISTRITAL 01","INEP":13030370,"SIGEAM":140,"TIPO":"INTEG","REDE":"ESTADUAL","LATITUDE":-3.1122260000000002,"LONGITUDE":-60.007533000000002,"MUNICIPIO":"MANAUS"},"geometry":{"x":-60.007500000298023,"y":-3.1121999993920326}},{"attributes":{"FID":126,"ID":126,"ESCOLA":"ESCOLA ESTADUAL IZABEL BARRONCAS","ENDERECO":"RUA BARAO DE MARACAJU","NUM":"115","BAIRRO":"SAO FRANCISCO","ZONA":"ZONA SUL","CEP":69079410,"LOCAL":"URBANA","DISTRITO":"COORD. DISTRITAL 01","INEP":13030434,"SIGEAM":141,"TIPO":"NORMAL","REDE":"ESTADUAL","LATITUDE":-3.1142080000000001,"LONGITUDE":-60.003450000000001,"MUNICIPIO":"MANAUS"},"geometry":{"x":-60.003400001674891,"y":-3.1141999997198582}},{"attributes":{"FID":127,"ID":127,"ESCOLA":"ESCOLA ESTADUAL MARCIO NERY","ENDERECO":"RUA MARCIANO ARMOND","NUM":"S/N","BAIRRO":"SAO FRANCISCO","ZONA":"ZONA SUL","CEP":69079130,"LOCAL":"URBANA","DISTRITO":"COORD. DISTRITAL 01","INEP":13027573,"SIGEAM":142,"TIPO":"NORMAL","REDE":"ESTADUAL","LATITUDE":-3.1162010000000002,"LONGITUDE":-60.006768000000001,"MUNICIPIO":"MANAUS"},"geometry":{"x":-60.006799999624491,"y":-3.1162000000476837}},{"attributes":{"FID":128,"ID":128,"ESCOLA":"ESCOLA ESTADUAL PE AGOSTINHO MARTIN","ENDERECO":"RUA ALFREDO PAES BARRETO","NUM":"1100","BAIRRO":"SAO FRANCISCO","ZONA":"ZONA SUL","CEP":69063290,"LOCAL":"URBANA","DISTRITO":"COORD. DISTRITAL 01","INEP":13030752,"SIGEAM":143,"TIPO":"NORMAL","REDE":"ESTADUAL","LATITUDE":-3.1126930000000002,"LONGITUDE":-60.002890000000001,"MUNICIPIO":"MANAUS"},"geometry":{"x":-60.002900000661612,"y":-3.1127000004053116}},{"attributes":{"FID":129,"ID":129,"ESCOLA":"ESCOLA ESTADUAL TIRADENTES","ENDERECO":"RUA CORONEL FERREIRA DE ARAUJO","NUM":"S/N","BAIRRO":"PETROPOLIS","ZONA":"ZONA SUL","CEP":69063000,"LOCAL":"URBANA","DISTRITO":"COORD. DISTRITAL 02","INEP":13028057,"SIGEAM":144,"TIPO":"NORMAL","REDE":"ESTADUAL","LATITUDE":-3.116501,"LONGITUDE":-59.997159000000003,"MUNICIPIO":"MANAUS"},"geometry":{"x":-59.99720000103116,"y":-3.1165000014007092}},{"attributes":{"FID":130,"ID":130,"ESCOLA":"ESCOLA ESTADUAL ARTHUR ARAUJO","ENDERECO":"AV DJALMA BATISTA","NUM":"160","BAIRRO":"NOSSA SENHORA DAS GRACAS","ZONA":"ZONA CENTRO-SUL","CEP":69053000,"LOCAL":"URBANA","DISTRITO":"COORD. DISTRITAL 03","INEP":13030205,"SIGEAM":147,"TIPO":"NORMAL","REDE":"ESTADUAL","LATITUDE":-3.1140560000000002,"LONGITUDE":-60.023288999999998,"MUNICIPIO":"MANAUS"},"geometry":{"x":-60.023299999535084,"y":-3.1141000017523766}},{"attributes":{"FID":131,"ID":131,"ESCOLA":"ESCOLA ESTADUAL HERBERT PALHANO","ENDERECO":"RUA BELEM","NUM":"215","BAIRRO":"NOSSA SENHORA DAS GRACAS","ZONA":"ZONA CENTRO-SUL","CEP":69053380,"LOCAL":"URBANA","DISTRITO":"COORD. DISTRITAL 03","INEP":13030388,"SIGEAM":148,"TIPO":"NORMAL","REDE":"ESTADUAL","LATITUDE":-3.1141489999999998,"LONGITUDE":-60.021616000000002,"MUNICIPIO":"MANAUS"},"geometry":{"x":-60.021600000560284,"y":-3.1141000017523766}},{"attributes":{"FID":132,"ID":132,"ESCOLA":"ESCOLA ESTADUAL PROF LEONOR SANTIAGO MOURAO","ENDERECO":"RUA MACEIO","NUM":"S/N","BAIRRO":"NOSSA SENHORA DAS GRACAS","ZONA":"ZONA CENTRO-SUL","CEP":69053660,"LOCAL":"URBANA","DISTRITO":"COORD. DISTRITAL 03","INEP":13030825,"SIGEAM":149,"TIPO":"INTEG","REDE":"ESTADUAL","LATITUDE":-3.101896,"LONGITUDE":-60.018203,"MUNICIPIO":"MANAUS"},"geometry":{"x":-60.018199998885393,"y":-3.1019000001251698}},{"attributes":{"FID":133,"ID":133,"ESCOLA":"ESCOLA ESTADUAL NOSSA SENHORA DAS GRACAS","ENDERECO":"RUA LIBERTADOR","NUM":"56","BAIRRO":"NOSSA SENHORA DAS GRACAS","ZONA":"ZONA CENTRO-SUL","CEP":69053090,"LOCAL":"URBANA","DISTRITO":"COORD. DISTRITAL 03","INEP":13030663,"SIGEAM":150,"TIPO":"INTEG","REDE":"ESTADUAL","LATITUDE":-3.1103900000000002,"LONGITUDE":-60.021438000000003,"MUNICIPIO":"MANAUS"},"geometry":{"x":-60.02140000090003,"y":-3.1103999987244606}},{"attributes":{"FID":134,"ID":134,"ESCOLA":"ESCOLA ESTADUAL SOLON DE LUCENA","ENDERECO":"AV CONSTANTINO NERY","NUM":"S/N","BAIRRO":"SAO GERALDO","ZONA":"ZONA CENTRO-SUL","CEP":69010160,"LOCAL":"URBANA","DISTRITO":"COORD. DISTRITAL 03","INEP":13028006,"SIGEAM":151,"TIPO":"NORMAL","REDE":"ESTADUAL","LATITUDE":-3.104657,"LONGITUDE":-60.027445,"MUNICIPIO":"MANAUS"},"geometry":{"x":-60.027399998158216,"y":-3.1046999990940094}},{"attributes":{"FID":135,"ID":135,"ESCOLA":"ESCOLA ESTADUAL VICENTE TELLES","ENDERECO":"AV CONSTANTINO NERY","NUM":"S/N","BAIRRO":"SAO GERALDO","ZONA":"ZONA CENTRO-SUL","CEP":69010160,"LOCAL":"URBANA","DISTRITO":"COORD. DISTRITAL 03","INEP":13028073,"SIGEAM":152,"TIPO":"NORMAL","REDE":"ESTADUAL","LATITUDE":-3.1075400000000002,"LONGITUDE":-60.026243000000001,"MUNICIPIO":"MANAUS"},"geometry":{"x":-60.026200000196695,"y":-3.1075000017881393}},{"attributes":{"FID":136,"ID":136,"ESCOLA":"ESCOLA ESTADUAL FUETH PAULO MOURAO","ENDERECO":"RUA BRASIL","NUM":"S/N","BAIRRO":"SAO JORGE","ZONA":"ZONA OESTE","CEP":69033070,"LOCAL":"URBANA","DISTRITO":"COORD. DISTRITAL 04","INEP":13030329,"SIGEAM":153,"TIPO":"NORMAL","REDE":"ESTADUAL","LATITUDE":-3.1094140000000001,"LONGITUDE":-60.039442999999999,"MUNICIPIO":"MANAUS"},"geometry":{"x":-60.03940000012517,"y":-3.109400000423193}},{"attributes":{"FID":137,"ID":137,"ESCOLA":"ESCOLA ESTADUAL GENERAL SAMPAIO","ENDERECO":"RUA BENJAMIN LIMA","NUM":"S/N","BAIRRO":"SAO JORGE","ZONA":"ZONA OESTE","CEP":69030680,"LOCAL":"URBANA","DISTRITO":"COORD. DISTRITAL 04","INEP":13030337,"SIGEAM":154,"TIPO":"NORMAL","REDE":"ESTADUAL","LATITUDE":-3.109988,"LONGITUDE":-60.038870000000003,"MUNICIPIO":"MANAUS"},"geometry":{"x":-60.038899999111891,"y":-3.1099999994039536}},{"attributes":{"FID":138,"ID":138,"ESCOLA":"ESCOLA ESTADUAL ISAAC BENAYON SABBA","ENDERECO":"RUA SENADOR CUNHA MELO","NUM":"77","BAIRRO":"SAO JORGE","ZONA":"ZONA OESTE","CEP":69033610,"LOCAL":"URBANA","DISTRITO":"COORD. DISTRITAL 04","INEP":13031090,"SIGEAM":155,"TIPO":"NORMAL","REDE":"ESTADUAL","LATITUDE":-3.1132040000000001,"LONGITUDE":-60.040263000000003,"MUNICIPIO":"MANAUS"},"geometry":{"x":-60.040300000458956,"y":-3.1132000014185905}},{"attributes":{"FID":139,"ID":139,"ESCOLA":"ESCOLA ESTADUAL JOAO BOSCO PANTOJA EVANGELISTA","ENDERECO":"RUA PE AGOSTINHO","NUM":"S/N","BAIRRO":"COMPENSA","ZONA":"ZONA OESTE","CEP":69035090,"LOCAL":"URBANA","DISTRITO":"COORD. DISTRITAL 04","INEP":13030450,"SIGEAM":156,"TIPO":"NORMAL","REDE":"ESTADUAL","LATITUDE":-3.1027,"LONGITUDE":-60.050213999999997,"MUNICIPIO":"MANAUS"},"geometry":{"x":-60.050200000405312,"y":-3.1026999987661839}},{"attributes":{"FID":140,"ID":140,"ESCOLA":"ESCOLA ESTADUAL MARECHAL HERMES","ENDERECO":"AV VALE DO PO","NUM":"S/N","BAIRRO":"NOVA ESPERANCA","ZONA":"ZONA OESTE","CEP":69037460,"LOCAL":"URBANA","DISTRITO":"COORD. DISTRITAL 04","INEP":13027590,"SIGEAM":157,"TIPO":"NORMAL","REDE":"ESTADUAL","LATITUDE":-3.086792,"LONGITUDE":-60.05829,"MUNICIPIO":"MANAUS"},"geometry":{"x":-60.058299999684095,"y":-3.0868000015616417}},{"attributes":{"FID":141,"ID":141,"ESCOLA":"ESCOLA ESTADUAL PRESIDENTE CASTELO BRANCO","ENDERECO":"TRAV ADERSON DE MENEZES","NUM":"S/N","BAIRRO":"SAO JORGE","ZONA":"ZONA OESTE","CEP":69033110,"LOCAL":"URBANA","DISTRITO":"COORD. DISTRITAL 04","INEP":13027786,"SIGEAM":158,"TIPO":"NORMAL","REDE":"ESTADUAL","LATITUDE":-3.107091,"LONGITUDE":-60.034090999999997,"MUNICIPIO":"MANAUS"},"geometry":{"x":-60.034099999815226,"y":-3.107099998742342}},{"attributes":{"FID":142,"ID":142,"ESCOLA":"ESCOLA ESTADUAL ZULMIRA BITTENCOURT","ENDERECO":"RUA SAO CRISTOVAO","NUM":"S/N","BAIRRO":"SAO JORGE","ZONA":"ZONA OESTE","CEP":69033420,"LOCAL":"URBANA","DISTRITO":"COORD. DISTRITAL 04","INEP":13030973,"SIGEAM":159,"TIPO":"NORMAL","REDE":"ESTADUAL","LATITUDE":-3.1123340000000002,"LONGITUDE":-60.033248,"MUNICIPIO":"MANAUS"},"geometry":{"x":-60.03319999948144,"y":-3.1123000010848045}},{"attributes":{"FID":143,"ID":143,"ESCOLA":"ESCOLA ESTADUAL PROF ANTONIO MAURITY MONTEIRO COELHO","ENDERECO":"RUA A","NUM":"S/N","BAIRRO":"COROADO","ZONA":"ZONA LESTE","CEP":69082440,"LOCAL":"URBANA","DISTRITO":"COORD. DISTRITAL 05","INEP":13031139,"SIGEAM":161,"TIPO":"NORMAL","REDE":"ESTADUAL","LATITUDE":-3.0779909999999999,"LONGITUDE":-59.972208000000002,"MUNICIPIO":"MANAUS"},"geometry":{"x":-59.972199998795986,"y":-3.0780000016093254}},{"attributes":{"FID":144,"ID":144,"ESCOLA":"ESCOLA ESTADUAL PROF BERNADETE DO SOCORRO TRINDADE DA ROCHA","ENDERECO":"RUA 12 A","NUM":"100","BAIRRO":"SAO JOSE OPERARIO","ZONA":"ZONA LESTE","CEP":69086131,"LOCAL":"URBANA","DISTRITO":"COORD. DISTRITAL 05","INEP":13031031,"SIGEAM":162,"TIPO":"NORMAL","REDE":"ESTADUAL","LATITUDE":-3.065747,"LONGITUDE":-59.940123999999997,"MUNICIPIO":"MANAUS"},"geometry":{"x":-59.940099999308586,"y":-3.0656999982893467}},{"attributes":{"FID":145,"ID":145,"ESCOLA":"ESCOLA ESTADUAL GILBERTO MESTRINHO","ENDERECO":"RUA DANILO AREOSA","NUM":"S/N","BAIRRO":"COLONIA ANTONIO ALEIXO","ZONA":"ZONA LESTE","CEP":69008090,"LOCAL":"URBANA","DISTRITO":"COORD. DISTRITAL 05","INEP":13030353,"SIGEAM":163,"TIPO":"NORMAL","REDE":"ESTADUAL","LATITUDE":-3.0869339999999998,"LONGITUDE":-59.891106000000001,"MUNICIPIO":"MANAUS"},"geometry":{"x":-59.891100000590086,"y":-3.0868999995291233}},{"attributes":{"FID":146,"ID":146,"ESCOLA":"ESCOLA ESTADUAL DR ISAAC SVERNER","ENDERECO":"RUA J","NUM":"79","BAIRRO":"SAO JOSE OPERARIO","ZONA":"ZONA LESTE","CEP":69086390,"LOCAL":"URBANA","DISTRITO":"COORD. DISTRITAL 05","INEP":13031066,"SIGEAM":164,"TIPO":"NORMAL","REDE":"ESTADUAL","LATITUDE":-3.0663490000000002,"LONGITUDE":-59.947015,"MUNICIPIO":"MANAUS"},"geometry":{"x":-59.947000000625849,"y":-3.0663000009953976}},{"attributes":{"FID":147,"ID":147,"ESCOLA":"ESCOLA ESTADUAL MARIA MADALENA SANTANA DE LIMA","ENDERECO":"RUA J","NUM":"S/N","BAIRRO":"ARMANDO MENDES","ZONA":"ZONA LESTE","CEP":69089140,"LOCAL":"URBANA","DISTRITO":"COORD. DISTRITAL 05","INEP":13027620,"SIGEAM":165,"TIPO":"NORMAL","REDE":"ESTADUAL","LATITUDE":-3.089731,"LONGITUDE":-59.943154,"MUNICIPIO":"MANAUS"},"geometry":{"x":-59.943199999630451,"y":-3.089699998497963}},{"attributes":{"FID":148,"ID":148,"ESCOLA":"ESCOLA ESTADUAL MARIA TEIXEIRA GOES","ENDERECO":"RUA DOUTORA DIDIA","NUM":"S/N","BAIRRO":"ZUMBI DOS PALMARES","ZONA":"ZONA LESTE","CEP":69084160,"LOCAL":"URBANA","DISTRITO":"COORD. DISTRITAL 05","INEP":13031163,"SIGEAM":166,"TIPO":"NORMAL","REDE":"ESTADUAL","LATITUDE":-3.0820470000000002,"LONGITUDE":-59.944983999999998,"MUNICIPIO":"MANAUS"},"geometry":{"x":-59.945000000298023,"y":-3.0819999985396862}},{"attributes":{"FID":149,"ID":149,"ESCOLA":"ESCOLA ESTADUAL RILTON LEAL FILHO","ENDERECO":"RUA J","NUM":"51","BAIRRO":"ARMANDO MENDES","ZONA":"ZONA LESTE","CEP":69089140,"LOCAL":"URBANA","DISTRITO":"COORD. DISTRITAL 05","INEP":13031511,"SIGEAM":167,"TIPO":"NORMAL","REDE":"ESTADUAL","LATITUDE":-3.08954,"LONGITUDE":-59.942295000000001,"MUNICIPIO":"MANAUS"},"geometry":{"x":-59.942299999296665,"y":-3.0894999988377094}},{"attributes":{"FID":150,"ID":150,"ESCOLA":"ESCOLA ESTADUAL VASCO VASQUES","ENDERECO":"RUA NOVA ESPERANCA","NUM":"S/N","BAIRRO":"JORGE TEIXEIRA","ZONA":"ZONA LESTE","CEP":69087380,"LOCAL":"URBANA","DISTRITO":"COORD. DISTRITAL 05","INEP":13030027,"SIGEAM":168,"TIPO":"NORMAL","REDE":"ESTADUAL","LATITUDE":-3.029871,"LONGITUDE":-59.92698,"MUNICIPIO":"MANAUS"},"geometry":{"x":-59.927000001072884,"y":-3.029899999499321}},{"attributes":{"FID":151,"ID":151,"ESCOLA":"ESCOLA ESTADUAL IRMA ADONAI POLITI","ENDERECO":"RUA PARAGUACU","NUM":"68","BAIRRO":"VILA DA PRATA","ZONA":"ZONA OESTE","CEP":69030540,"LOCAL":"URBANA","DISTRITO":"COORD. DISTRITAL 04","INEP":13071840,"SIGEAM":169,"TIPO":"NORMAL","REDE":"ESTADUAL","LATITUDE":-3.1102539999999999,"LONGITUDE":-60.047221999999998,"MUNICIPIO":"MANAUS"},"geometry":{"x":-60.047200001776218,"y":-3.110300000756979}},{"attributes":{"FID":152,"ID":152,"ESCOLA":"ESCOLA ESTADUAL ANTONIO BITTENCOURT","ENDERECO":"RUA ANTONIO BITTENCOURT","NUM":"72","BAIRRO":"GLORIA","ZONA":"ZONA OESTE","CEP":69027110,"LOCAL":"URBANA","DISTRITO":"COORD. DISTRITAL 04","INEP":13030990,"SIGEAM":170,"TIPO":"NORMAL","REDE":"ESTADUAL","LATITUDE":-3.1231399999999998,"LONGITUDE":-60.036932,"MUNICIPIO":"MANAUS"},"geometry":{"x":-60.036899998784065,"y":-3.1231000013649464}},{"attributes":{"FID":153,"ID":153,"ESCOLA":"ESCOLA ESTADUAL JOANNA RODRIGUES VIEIRA","ENDERECO":"RUA LOURIVAL MUNIZ","NUM":"514","BAIRRO":"GLORIA","ZONA":"ZONA OESTE","CEP":69027640,"LOCAL":"URBANA","DISTRITO":"COORD. DISTRITAL 04","INEP":13031503,"SIGEAM":171,"TIPO":"NORMAL","REDE":"ESTADUAL","LATITUDE":-3.122773,"LONGITUDE":-60.037013000000002,"MUNICIPIO":"MANAUS"},"geometry":{"x":-60.037000000476837,"y":-3.1228000000119209}},{"attributes":{"FID":154,"ID":154,"ESCOLA":"ESCOLA ESTADUAL LIBERALINA WEILL","ENDERECO":"RUA COMENDADOR J G ARAUJO","NUM":"657","BAIRRO":"SANTO ANTONIO","ZONA":"ZONA OESTE","CEP":69029130,"LOCAL":"URBANA","DISTRITO":"COORD. DISTRITAL 04","INEP":13027514,"SIGEAM":172,"TIPO":"INTEG","REDE":"ESTADUAL","LATITUDE":-3.1170249999999999,"LONGITUDE":-60.038592000000001,"MUNICIPIO":"MANAUS"},"geometry":{"x":-60.038600001484156,"y":-3.1169999986886978}},{"attributes":{"FID":155,"ID":155,"ESCOLA":"ESCOLA ESTADUAL MARQUES DE SANTA CRUZ","ENDERECO":"RUA VIRGILIO RAMOS","NUM":"S/N","BAIRRO":"SAO RAIMUNDO","ZONA":"ZONA OESTE","CEP":69027060,"LOCAL":"URBANA","DISTRITO":"COORD. DISTRITAL 04","INEP":13027646,"SIGEAM":173,"TIPO":"INTEG","REDE":"ESTADUAL","LATITUDE":-3.128152,"LONGITUDE":-60.037646000000002,"MUNICIPIO":"MANAUS"},"geometry":{"x":-60.037599999457598,"y":-3.1281999982893467}},{"attributes":{"FID":156,"ID":156,"ESCOLA":"ESCOLA ESTADUAL GOVERNADOR MELO POVOAS","ENDERECO":"RUA COM MATOS AREOSA","NUM":"S/N","BAIRRO":"SANTO ANTONIO","ZONA":"ZONA OESTE","CEP":69029200,"LOCAL":"URBANA","DISTRITO":"COORD. DISTRITAL 04","INEP":13030604,"SIGEAM":174,"TIPO":"NORMAL","REDE":"ESTADUAL","LATITUDE":-3.1179389999999998,"LONGITUDE":-60.037556000000002,"MUNICIPIO":"MANAUS"},"geometry":{"x":-60.037599999457598,"y":-3.1178999990224838}},{"attributes":{"FID":157,"ID":157,"ESCOLA":"ESCOLA ESTADUAL N S DA GLORIA","ENDERECO":"RUA LOURIVAL MUNIZ","NUM":"370","BAIRRO":"GLORIA","ZONA":"ZONA OESTE","CEP":69027640,"LOCAL":"URBANA","DISTRITO":"COORD. DISTRITAL 04","INEP":13030671,"SIGEAM":175,"TIPO":"NORMAL","REDE":"ESTADUAL","LATITUDE":-3.121829,"LONGITUDE":-60.036532000000001,"MUNICIPIO":"MANAUS"},"geometry":{"x":-60.036499999463558,"y":-3.1218000017106533}},{"attributes":{"FID":158,"ID":158,"ESCOLA":"ESCOLA ESTADUAL OLAVO BILAC","ENDERECO":"RUA 5 DE SETEMBRO","NUM":"82","BAIRRO":"SAO RAIMUNDO","ZONA":"ZONA OESTE","CEP":69027010,"LOCAL":"URBANA","DISTRITO":"COORD. DISTRITAL 04","INEP":13030701,"SIGEAM":176,"TIPO":"NORMAL","REDE":"ESTADUAL","LATITUDE":-3.1274850000000001,"LONGITUDE":-60.035583000000003,"MUNICIPIO":"MANAUS"},"geometry":{"x":-60.035599999129772,"y":-3.1275000013411045}},{"attributes":{"FID":159,"ID":159,"ESCOLA":"ESCOLA ESTADUAL PEDRO SILVESTRE","ENDERECO":"RUA RIO BRANCO","NUM":"S/N","BAIRRO":"SAO RAIMUNDO","ZONA":"ZONA OESTE","CEP":69027034,"LOCAL":"URBANA","DISTRITO":"COORD. DISTRITAL 04","INEP":13027751,"SIGEAM":177,"TIPO":"NORMAL","REDE":"ESTADUAL","LATITUDE":-3.127354,"LONGITUDE":-60.040280000000003,"MUNICIPIO":"MANAUS"},"geometry":{"x":-60.040300000458956,"y":-3.1273999996483326}},{"attributes":{"FID":160,"ID":160,"ESCOLA":"ESCOLA ESTADUAL SANTO ANTONIO","ENDERECO":"RUA DR LAURO BITTENCOURT","NUM":"S/N","BAIRRO":"SANTO ANTONIO","ZONA":"ZONA OESTE","CEP":69090060,"LOCAL":"URBANA","DISTRITO":"COORD. DISTRITAL 04","INEP":13030876,"SIGEAM":178,"TIPO":"NORMAL","REDE":"ESTADUAL","LATITUDE":-3.1163069999999999,"LONGITUDE":-60.041983000000002,"MUNICIPIO":"MANAUS"},"geometry":{"x":-60.041999999433756,"y":-3.1163000017404556}},{"attributes":{"FID":161,"ID":161,"ESCOLA":"ESCOLA ESTADUAL SAO LUIZ DE GONZAGA","ENDERECO":"RUA 5 DE SETEMBRO","NUM":"S/N","BAIRRO":"SAO RAIMUNDO","ZONA":"ZONA OESTE","CEP":69027010,"LOCAL":"URBANA","DISTRITO":"COORD. DISTRITAL 04","INEP":13030884,"SIGEAM":179,"TIPO":"NORMAL","REDE":"ESTADUAL","LATITUDE":-3.127278,"LONGITUDE":-60.037731000000001,"MUNICIPIO":"MANAUS"},"geometry":{"x":-60.03770000115037,"y":-3.127300001680851}},{"attributes":{"FID":162,"ID":162,"ESCOLA":"ESCOLA ESTADUAL ARLINDO VIEIRA DOS SANTOS","ENDERECO":"AV CHICO MENDES","NUM":"825","BAIRRO":"COLONIA TERRA NOVA","ZONA":"ZONA NORTE","CEP":69068240,"LOCAL":"URBANA","DISTRITO":"COORD. DISTRITAL 07","INEP":13055194,"SIGEAM":1048,"TIPO":"NORMAL","REDE":"ESTADUAL","LATITUDE":-3.0206400000000002,"LONGITUDE":-60.008093000000002,"MUNICIPIO":"MANAUS"},"geometry":{"x":-60.008099999278784,"y":-3.0205999985337257}},{"attributes":{"FID":163,"ID":163,"ESCOLA":"ESCOLA ESTADUAL ELIRA PINHEIRO","ENDERECO":"RUA BEM TE VI","NUM":"S/N","BAIRRO":"CIDADE DE DEUS","ZONA":"ZONA NORTE","CEP":69099000,"LOCAL":"URBANA","DISTRITO":"COORD. DISTRITAL 06","INEP":13066846,"SIGEAM":1049,"TIPO":"NORMAL","REDE":"ESTADUAL","LATITUDE":-3.0275259999999999,"LONGITUDE":-59.951953000000003,"MUNICIPIO":"MANAUS"},"geometry":{"x":-59.951999999582767,"y":-3.0274999998509884}},{"attributes":{"FID":164,"ID":164,"ESCOLA":"ESCOLA ESTADUAL MANUEL ANTONIO DE SOUZA","ENDERECO":"TRAVESSA GETULIO VARGAS","NUM":"S/N","BAIRRO":"COLONIA ANTONIO ALEIXO","ZONA":"ZONA LESTE","CEP":69008001,"LOCAL":"URBANA","DISTRITO":"COORD. DISTRITAL 05","INEP":13071670,"SIGEAM":1102,"TIPO":"NORMAL","REDE":"ESTADUAL","LATITUDE":-3.0932870000000001,"LONGITUDE":-59.897207999999999,"MUNICIPIO":"MANAUS"},"geometry":{"x":-59.897199999541044,"y":-3.093299999833107}},{"attributes":{"FID":165,"ID":165,"ESCOLA":"ESCOLA ESTADUAL PROF WALDOCKE FRICKE DE LYRA","ENDERECO":"RUA SANTA HELENA","NUM":"S/N","BAIRRO":"TARUMA","ZONA":"ZONA OESTE","CEP":69090001,"LOCAL":"URBANA","DISTRITO":"COORD. DISTRITAL 07","INEP":13075390,"SIGEAM":1270,"TIPO":"NORMAL","REDE":"ESTADUAL","LATITUDE":-3.0032800000000002,"LONGITUDE":-60.033346999999999,"MUNICIPIO":"MANAUS"},"geometry":{"x":-60.033300001174212,"y":-3.0032999999821186}},{"attributes":{"FID":166,"ID":166,"ESCOLA":"ESCOLA ESTADUAL DOM JACSON DAMASCENO RODRIGUES","ENDERECO":"RUA RIO PIRATUCU","NUM":"S/N","BAIRRO":"SAO JOSE OPERARIO","ZONA":"ZONA LESTE","CEP":69085293,"LOCAL":"URBANA","DISTRITO":"COORD. DISTRITAL 05","INEP":13076841,"SIGEAM":1282,"TIPO":"NORMAL","REDE":"ESTADUAL","LATITUDE":-3.0633870000000001,"LONGITUDE":-59.961444,"MUNICIPIO":"MANAUS"},"geometry":{"x":-59.961399998515844,"y":-3.063400000333786}},{"attributes":{"FID":167,"ID":167,"ESCOLA":"ESCOLA ESTADUAL PROF JURACY BATISTA GOMES","ENDERECO":"RUA 40","NUM":"S/N","BAIRRO":"NOVO ALEIXO","ZONA":"ZONA NORTE","CEP":69097000,"LOCAL":"URBANA","DISTRITO":"COORD. DISTRITAL 06","INEP":13075098,"SIGEAM":1283,"TIPO":"NORMAL","REDE":"ESTADUAL","LATITUDE":-3.0459260000000001,"LONGITUDE":-59.951011999999999,"MUNICIPIO":"MANAUS"},"geometry":{"x":-59.9510000012815,"y":-3.0458999983966351}},{"attributes":{"FID":168,"ID":168,"ESCOLA":"ESCOLA ESTADUAL PROF JORGE KARAM NETO","ENDERECO":"RUA TUCANO","NUM":"364","BAIRRO":"TANCREDO NEVES","ZONA":"ZONA LESTE","CEP":69087073,"LOCAL":"URBANA","DISTRITO":"COORD. DISTRITAL 05","INEP":13074369,"SIGEAM":1284,"TIPO":"NORMAL","REDE":"ESTADUAL","LATITUDE":-3.0559259999999999,"LONGITUDE":-59.948918999999997,"MUNICIPIO":"MANAUS"},"geometry":{"x":-59.948899999260902,"y":-3.0559000000357628}},{"attributes":{"FID":169,"ID":169,"ESCOLA":"ESCOLA ESTADUAL J G ARAUJO","ENDERECO":"RUA SANTA RITA","NUM":"S/N","BAIRRO":"SANTA LUZIA","ZONA":"ZONA SUL","CEP":69074470,"LOCAL":"URBANA","DISTRITO":"COORD. DISTRITAL 02","INEP":13072102,"SIGEAM":1308,"TIPO":"NORMAL","REDE":"ESTADUAL","LATITUDE":-3.1406800000000001,"LONGITUDE":-60.004300000000001,"MUNICIPIO":"MANAUS"},"geometry":{"x":-60.004299998283386,"y":-3.1407000012695789}},{"attributes":{"FID":170,"ID":170,"ESCOLA":"ESCOLA ESTADUAL PROF FRANCISCO DAS CHAGAS DE SOUZA ALBUQUERQUE","ENDERECO":"AV JOAQUIM NABUCO","NUM":"1159","BAIRRO":"CENTRO","ZONA":"ZONA SUL","CEP":69020031,"LOCAL":"URBANA","DISTRITO":"COORD. DISTRITAL 01","INEP":13077430,"SIGEAM":1322,"TIPO":"NORMAL","REDE":"ESTADUAL","LATITUDE":-3.1318990000000002,"LONGITUDE":-60.019157999999997,"MUNICIPIO":"MANAUS"},"geometry":{"x":-60.019200000911951,"y":-3.1319000013172626}},{"attributes":{"FID":171,"ID":171,"ESCOLA":"ESCOLA ESTADUAL CID CABRAL DA SILVA","ENDERECO":"RUA M","NUM":"S/N","BAIRRO":"CIDADE NOVA","ZONA":"ZONA NORTE","CEP":69097220,"LOCAL":"URBANA","DISTRITO":"COORD. DISTRITAL 06","INEP":13079638,"SIGEAM":1373,"TIPO":"NORMAL","REDE":"ESTADUAL","LATITUDE":-3.0212340000000002,"LONGITUDE":-59.960061000000003,"MUNICIPIO":"MANAUS"},"geometry":{"x":-59.960099998861551,"y":-3.0212000012397766}},{"attributes":{"FID":172,"ID":172,"ESCOLA":"ESCOLA ESTADUAL PROFA SEBASTIANA BRAGA","ENDERECO":"AV TIMBIRAS","NUM":"S/N","BAIRRO":"CIDADE NOVA","ZONA":"ZONA NORTE","CEP":69090010,"LOCAL":"URBANA","DISTRITO":"COORD. DISTRITAL 06","INEP":13080598,"SIGEAM":1374,"TIPO":"NORMAL","REDE":"ESTADUAL","LATITUDE":-3.0396570000000001,"LONGITUDE":-59.982154000000001,"MUNICIPIO":"MANAUS"},"geometry":{"x":-59.982200000435114,"y":-3.0397000014781952}},{"attributes":{"FID":173,"ID":173,"ESCOLA":"ESCOLA ESTADUAL LETICIO DE CAMPOS DANTAS","ENDERECO":"RUA COLHEREIRAS","NUM":"S/N","BAIRRO":"CIDADE DE DEUS","ZONA":"ZONA NORTE","CEP":69099414,"LOCAL":"URBANA","DISTRITO":"COORD. DISTRITAL 06","INEP":13081381,"SIGEAM":1375,"TIPO":"NORMAL","REDE":"ESTADUAL","LATITUDE":-3.0251070000000002,"LONGITUDE":-59.956249,"MUNICIPIO":"MANAUS"},"geometry":{"x":-59.956199999898672,"y":-3.0251000002026558}},{"attributes":{"FID":174,"ID":174,"ESCOLA":"ESCOLA ESTADUAL RODERICK DE CASTELLO BRANCO","ENDERECO":"RUA 12A","NUM":"S/N","BAIRRO":"SAO JOSE OPERARIO","ZONA":"ZONA LESTE","CEP":69086131,"LOCAL":"URBANA","DISTRITO":"COORD. DISTRITAL 05","INEP":13080547,"SIGEAM":1376,"TIPO":"NORMAL","REDE":"ESTADUAL","LATITUDE":-3.0649929999999999,"LONGITUDE":-59.939616999999998,"MUNICIPIO":"MANAUS"},"geometry":{"x":-59.939599998295307,"y":-3.0650000013411045}},{"attributes":{"FID":175,"ID":175,"ESCOLA":"ESCOLA ESTADUAL PE LUIS RUAS","ENDERECO":"RUA BOM JESUS","NUM":"7630","BAIRRO":"ZUMBI DOS PALMARES","ZONA":"ZONA LESTE","CEP":69089331,"LOCAL":"URBANA","DISTRITO":"COORD. DISTRITAL 05","INEP":13080539,"SIGEAM":1377,"TIPO":"NORMAL","REDE":"ESTADUAL","LATITUDE":-3.0807159999999998,"LONGITUDE":-59.949547000000003,"MUNICIPIO":"MANAUS"},"geometry":{"x":-59.949499998241663,"y":-3.0806999988853931}},{"attributes":{"FID":176,"ID":176,"ESCOLA":"ESCOLA ESTADUAL PROF CLEOMENES DO CARMO CHAVES","ENDERECO":"RUA 01","NUM":"S/N","BAIRRO":"JORGE TEIXEIRA","ZONA":"ZONA LESTE","CEP":69087380,"LOCAL":"URBANA","DISTRITO":"COORD. DISTRITAL 05","INEP":13080580,"SIGEAM":1378,"TIPO":"NORMAL","REDE":"ESTADUAL","LATITUDE":-3.0290170000000001,"LONGITUDE":-59.930363,"MUNICIPIO":"MANAUS"},"geometry":{"x":-59.930399999022484,"y":-3.028999999165535}},{"attributes":{"FID":177,"ID":177,"ESCOLA":"ESCOLA ESTADUAL ERNESTO PENAFORT","ENDERECO":"RUA MARGINAL","NUM":"S/N","BAIRRO":"SAO JOSE OPERARIO","ZONA":"ZONA LESTE","CEP":69086003,"LOCAL":"URBANA","DISTRITO":"COORD. DISTRITAL 05","INEP":13078615,"SIGEAM":1383,"TIPO":"NORMAL","REDE":"ESTADUAL","LATITUDE":-3.0571929999999998,"LONGITUDE":-59.953265999999999,"MUNICIPIO":"MANAUS"},"geometry":{"x":-59.953299999237061,"y":-3.0571999996900558}},{"attributes":{"FID":178,"ID":178,"ESCOLA":"ESCOLA ESTADUAL PROF DORVAL VARELA MOURA","ENDERECO":"AV CURACAO","NUM":"S/N","BAIRRO":"NOVA CIDADE","ZONA":"ZONA NORTE","CEP":69095000,"LOCAL":"URBANA","DISTRITO":"COORD. DISTRITAL 07","INEP":13078143,"SIGEAM":1389,"TIPO":"NORMAL","REDE":"ESTADUAL","LATITUDE":-3.0102959999999999,"LONGITUDE":-59.975462999999998,"MUNICIPIO":"MANAUS"},"geometry":{"x":-59.975499998778105,"y":-3.0102999992668629}},{"attributes":{"FID":179,"ID":179,"ESCOLA":"ESCOLA ESTADUAL MARCANTONIO VILACA","ENDERECO":"AV MAX TEIXEIRA","NUM":"1950","BAIRRO":"CIDADE NOVA","ZONA":"ZONA NORTE","CEP":69090000,"LOCAL":"URBANA","DISTRITO":"COORD. DISTRITAL 06","INEP":13080563,"SIGEAM":1402,"TIPO":"NORMAL","REDE":"ESTADUAL","LATITUDE":-3.0372029999999999,"LONGITUDE":-60.001618000000001,"MUNICIPIO":"MANAUS"},"geometry":{"x":-60.001600001007318,"y":-3.0372000001370907}},{"attributes":{"FID":180,"ID":180,"ESCOLA":"ESCOLA ESTADUAL PROF JULIO CESAR DE MORAES PASSOS","ENDERECO":"AV MAX TEIXEIRA","NUM":"1041","BAIRRO":"CIDADE NOVA","ZONA":"ZONA NORTE","CEP":69093770,"LOCAL":"URBANA","DISTRITO":"COORD. DISTRITAL 06","INEP":13080571,"SIGEAM":1474,"TIPO":"NORMAL","REDE":"ESTADUAL","LATITUDE":-3.0361919999999998,"LONGITUDE":-59.996783000000001,"MUNICIPIO":"MANAUS"},"geometry":{"x":-59.996800001710653,"y":-3.0362000018358231}},{"attributes":{"FID":181,"ID":181,"ESCOLA":"ESCOLA ESTADUAL ANTOGILDO PASCOAL VIANA","ENDERECO":"TV JERUSALEM","NUM":"221","BAIRRO":"COLONIA SANTO ANTONIO","ZONA":"ZONA NORTE","CEP":69039431,"LOCAL":"URBANA","DISTRITO":"COORD. DISTRITAL 07","INEP":13082175,"SIGEAM":1481,"TIPO":"NORMAL","REDE":"ESTADUAL","LATITUDE":-3.0311349999999999,"LONGITUDE":-60.015799999999999,"MUNICIPIO":"MANAUS"},"geometry":{"x":-60.015799999237061,"y":-3.0311000011861324}},{"attributes":{"FID":182,"ID":182,"ESCOLA":"ESCOLA ESTADUAL PROF JACIMAR DA SILVA GAMA","ENDERECO":"RUA PARAGUACU","NUM":"S/N","BAIRRO":"PETROPOLIS","ZONA":"ZONA SUL","CEP":69065010,"LOCAL":"URBANA","DISTRITO":"COORD. DISTRITAL 02","INEP":13083732,"SIGEAM":1496,"TIPO":"NORMAL","REDE":"ESTADUAL","LATITUDE":-3.1013289999999998,"LONGITUDE":-59.984419000000003,"MUNICIPIO":"MANAUS"},"geometry":{"x":-59.984400000423193,"y":-3.1013000011444092}},{"attributes":{"FID":183,"ID":183,"ESCOLA":"CEJA PROF AGENOR FERREIRA LIMA","ENDERECO":"AV ANDRE ARAUJO","NUM":"99","BAIRRO":"ALEIXO","ZONA":"ZONA CENTRO-SUL","CEP":69060000,"LOCAL":"URBANA","DISTRITO":"COORD. DISTRITAL 03","INEP":13025104,"SIGEAM":1498,"TIPO":"CEJA","REDE":"ESTADUAL","LATITUDE":-3.105251,"LONGITUDE":-60.006183999999998,"MUNICIPIO":"MANAUS"},"geometry":{"x":-60.00620000064373,"y":-3.1053000018000603}},{"attributes":{"FID":184,"ID":184,"ESCOLA":"ESCOLA ESTADUAL JOSEPHINA DE MELO","ENDERECO":"AV DES JOAO MACHADO","NUM":"S/N","BAIRRO":"FLORES","ZONA":"ZONA CENTRO-SUL","CEP":69044000,"LOCAL":"URBANA","DISTRITO":"COORD. DISTRITAL 03","INEP":13082167,"SIGEAM":1499,"TIPO":"NORMAL","REDE":"ESTADUAL","LATITUDE":-3.075529,"LONGITUDE":-60.029761000000001,"MUNICIPIO":"MANAUS"},"geometry":{"x":-60.029800001531839,"y":-3.0755000002682209}},{"attributes":{"FID":185,"ID":185,"ESCOLA":"ESCOLA ESTADUAL ANTONIO NUNEZ JIMENEZ","ENDERECO":"RUA ANTENOR CAVALCANTE","NUM":"S/N","BAIRRO":"ZUMBI DOS PALMARES","ZONA":"ZONA LESTE","CEP":69084021,"LOCAL":"URBANA","DISTRITO":"COORD. DISTRITAL 05","INEP":13082183,"SIGEAM":1506,"TIPO":"NORMAL","REDE":"ESTADUAL","LATITUDE":-3.0775000000000001,"LONGITUDE":-59.937033,"MUNICIPIO":"MANAUS"},"geometry":{"x":-59.936999998986721,"y":-3.0775000005960464}},{"attributes":{"FID":186,"ID":186,"ESCOLA":"ESCOLA ESTADUAL PROF OCTAVIO MOURAO","ENDERECO":"RUA AMAZONINO MENDES","NUM":"S/N","BAIRRO":"SANTA ETELVINA","ZONA":"ZONA NORTE","CEP":69059140,"LOCAL":"URBANA","DISTRITO":"COORD. DISTRITAL 07","INEP":13084232,"SIGEAM":1507,"TIPO":"NORMAL","REDE":"ESTADUAL","LATITUDE":-2.9815700000000001,"LONGITUDE":-60.016058999999998,"MUNICIPIO":"MANAUS"},"geometry":{"x":-60.016100000590086,"y":-2.9816000014543533}},{"attributes":{"FID":187,"ID":187,"ESCOLA":"ESCOLA ESTADUAL ERNESTO PINHO FILHO","ENDERECO":"AV SAMAUNA","NUM":"S/N","BAIRRO":"NOVA CIDADE","ZONA":"ZONA NORTE","CEP":69093132,"LOCAL":"URBANA","DISTRITO":"COORD. DISTRITAL 07","INEP":13083694,"SIGEAM":1514,"TIPO":"NORMAL","REDE":"ESTADUAL","LATITUDE":-3.0170629999999998,"LONGITUDE":-59.990310999999998,"MUNICIPIO":"MANAUS"},"geometry":{"x":-59.990299999713898,"y":-3.0170999988913536}},{"attributes":{"FID":188,"ID":188,"ESCOLA":"ESCOLA ESTADUAL MANUEL RODRIGUES DE SOUZA","ENDERECO":"AV ITACOLOMI","NUM":"S/N","BAIRRO":"ARMANDO MENDES","ZONA":"ZONA LESTE","CEP":69089321,"LOCAL":"URBANA","DISTRITO":"COORD. DISTRITAL 05","INEP":13084445,"SIGEAM":1515,"TIPO":"NORMAL","REDE":"ESTADUAL","LATITUDE":-3.0945640000000001,"LONGITUDE":-59.936833,"MUNICIPIO":"MANAUS"},"geometry":{"x":-59.936799999326468,"y":-3.0945999994874001}},{"attributes":{"FID":189,"ID":189,"ESCOLA":"ESCOLA ESTADUAL PROF SAMUEL BENCHIMOL","ENDERECO":"RUA SECUNDARIA 8 NOVA CIDADE","NUM":"S/N","BAIRRO":"NOVA CIDADE","ZONA":"ZONA NORTE","CEP":69092405,"LOCAL":"URBANA","DISTRITO":"COORD. DISTRITAL 07","INEP":13083295,"SIGEAM":1516,"TIPO":"NORMAL","REDE":"ESTADUAL","LATITUDE":-3.003495,"LONGITUDE":-59.987447000000003,"MUNICIPIO":"MANAUS"},"geometry":{"x":-59.987399999052286,"y":-3.0034999996423721}},{"attributes":{"FID":190,"ID":190,"ESCOLA":"ESCOLA ESTADUAL PROF RUY ALENCAR","ENDERECO":"AV MARGARITA","NUM":"S/N","BAIRRO":"NOVA CIDADE","ZONA":"ZONA NORTE","CEP":69097305,"LOCAL":"URBANA","DISTRITO":"COORD. DISTRITAL 07","INEP":13084402,"SIGEAM":1544,"TIPO":"NORMAL","REDE":"ESTADUAL","LATITUDE":-3.0070999999999999,"LONGITUDE":-59.974299000000002,"MUNICIPIO":"MANAUS"},"geometry":{"x":-59.974300000816584,"y":-3.0071000009775162}},{"attributes":{"FID":191,"ID":191,"ESCOLA":"ESCOLA ESTADUAL BELARMINO MARREIRO","ENDERECO":"RUA JUNQUEIRA CONJ ARCO IRIS","NUM":"S/N","BAIRRO":"NOVO ALEIXO","ZONA":"ZONA NORTE","CEP":69095000,"LOCAL":"URBANA","DISTRITO":"COORD. DISTRITAL 06","INEP":13083724,"SIGEAM":1560,"TIPO":"NORMAL","REDE":"ESTADUAL","LATITUDE":-3.0508679999999999,"LONGITUDE":-59.964140999999998,"MUNICIPIO":"MANAUS"},"geometry":{"x":-59.964099999517202,"y":-3.0509000010788441}},{"attributes":{"FID":192,"ID":192,"ESCOLA":"CEJA PROF JACIRA CABOCLO","ENDERECO":"AV CONSTANTINO NERY","NUM":"603","BAIRRO":"PRESIDENTE VARGAS","ZONA":"ZONA SUL","CEP":69010000,"LOCAL":"URBANA","DISTRITO":"COORD. DISTRITAL 01","INEP":13083708,"SIGEAM":1575,"TIPO":"CEJA","REDE":"ESTADUAL","LATITUDE":-3.1204999999999998,"LONGITUDE":-60.026854999999998,"MUNICIPIO":"MANAUS"},"geometry":{"x":-60.026900000870228,"y":-3.1204999983310699}},{"attributes":{"FID":193,"ID":193,"ESCOLA":"ALDEIA DO CONHECIMENTO PROFA RUTH PRESTES GONCALVES","ENDERECO":"NOEL NUTLES","NUM":"51","BAIRRO":"CIDADE NOVA","ZONA":"ZONA NORTE","CEP":69090000,"LOCAL":"URBANA","DISTRITO":"COORD. DISTRITAL 06","INEP":13084860,"SIGEAM":1617,"TIPO":"NORMAL","REDE":"ESTADUAL","LATITUDE":-3.0296539999999998,"LONGITUDE":-59.979385999999998,"MUNICIPIO":"MANAUS"},"geometry":{"x":-59.979400001466274,"y":-3.0296999998390675}},{"attributes":{"FID":194,"ID":194,"ESCOLA":"ESCOLA ESTADUAL PROF ROBERTO DOS SANTOS VIEIRA","ENDERECO":"AV MARGARITA","NUM":"S/N","BAIRRO":"NOVA CIDADE","ZONA":"ZONA NORTE","CEP":69097000,"LOCAL":"URBANA","DISTRITO":"COORD. DISTRITAL 07","INEP":13087835,"SIGEAM":6237,"TIPO":"NORMAL","REDE":"ESTADUAL","LATITUDE":-3.0055040000000002,"LONGITUDE":-59.979160999999998,"MUNICIPIO":"MANAUS"},"geometry":{"x":-59.979200001806021,"y":-3.0054999999701977}},{"attributes":{"FID":195,"ID":195,"ESCOLA":"ESCOLA ESTADUAL PROF ADELAIDE TAVARES DE MACEDO","ENDERECO":"AV DES JOAO MACHADO","NUM":"S/N","BAIRRO":"ALVORADA","ZONA":"ZONA CENTRO-OESTE","CEP":69048610,"LOCAL":"URBANA","DISTRITO":"COORD. DISTRITAL 03","INEP":13087843,"SIGEAM":6238,"TIPO":"NORMAL","REDE":"ESTADUAL","LATITUDE":-3.073264,"LONGITUDE":-60.034374999999997,"MUNICIPIO":"MANAUS"},"geometry":{"x":-60.034400001168251,"y":-3.0733000002801418}},{"attributes":{"FID":196,"ID":196,"ESCOLA":"ESCOLA ESTADUAL PROF ROXANA PEREIRA BONESSI","ENDERECO":"RUA ENZO FERREIRA","NUM":"S/N","BAIRRO":"COLONIA OLIVEIRA MACHADO","ZONA":"ZONA SUL","CEP":69070840,"LOCAL":"URBANA","DISTRITO":"COORD. DISTRITAL 02","INEP":13089315,"SIGEAM":6247,"TIPO":"INTEG","REDE":"ESTADUAL","LATITUDE":-3.1459809999999999,"LONGITUDE":-60.005389000000001,"MUNICIPIO":"MANAUS"},"geometry":{"x":-60.005399998277426,"y":-3.1460000015795231}},{"attributes":{"FID":197,"ID":197,"ESCOLA":"ESCOLA ESTADUAL RAIMUNDA HOLANDA DE SOUZA","ENDERECO":"RUA ARAUJO LIMA","NUM":"S/N","BAIRRO":"NOVO ALEIXO","ZONA":"ZONA NORTE","CEP":69099067,"LOCAL":"URBANA","DISTRITO":"COORD. DISTRITAL 06","INEP":13090232,"SIGEAM":6294,"TIPO":"NORMAL","REDE":"ESTADUAL","LATITUDE":-3.0390480000000002,"LONGITUDE":-59.942343000000001,"MUNICIPIO":"MANAUS"},"geometry":{"x":-59.942299999296665,"y":-3.0390000008046627}},{"attributes":{"FID":198,"ID":198,"ESCOLA":"ESCOLA ESTADUAL DE ATENDIMENTO ESPECIFICO MAYARA REDMAN ABDEL AZIZ","ENDERECO":"AV JORNALISTA UMBERTO CALDERARO FILHO","NUM":"903","BAIRRO":"ADRIANOPOLIS","ZONA":"ZONA CENTRO-SUL","CEP":69057021,"LOCAL":"URBANA","DISTRITO":"COORD. DISTRITAL 03","INEP":13211200,"SIGEAM":6334,"TIPO":"NORMAL","REDE":"ESTADUAL","LATITUDE":-3.0961020000000001,"LONGITUDE":-60.009614999999997,"MUNICIPIO":"MANAUS"},"geometry":{"x":-60.00959999859333,"y":-3.0960999988019466}},{"attributes":{"FID":199,"ID":199,"ESCOLA":"ESCOLA ESTADUAL DAISAKU IKEDA","ENDERECO":"RUA RAUL PAVON","NUM":"S/N","BAIRRO":"GILBERTO MESTRINHO","ZONA":"ZONA LESTE","CEP":69086129,"LOCAL":"URBANA","DISTRITO":"COORD. DISTRITAL 05","INEP":13093177,"SIGEAM":6486,"TIPO":"NORMAL","REDE":"ESTADUAL","LATITUDE":-3.06643,"LONGITUDE":-59.935569000000001,"MUNICIPIO":"MANAUS"},"geometry":{"x":-59.935600001364946,"y":-3.0663999989628792}},{"attributes":{"FID":200,"ID":200,"ESCOLA":"ESCOLA ESTADUAL PROFA WILMA VITORIANO GEBER","ENDERECO":"RUA SANTA MARIA DA PAZ","NUM":"821","BAIRRO":"CIDADE DE DEUS","ZONA":"ZONA NORTE","CEP":69099465,"LOCAL":"URBANA","DISTRITO":"COORD. DISTRITAL 06","INEP":13095641,"SIGEAM":6520,"TIPO":"NORMAL","REDE":"ESTADUAL","LATITUDE":-3.0139610000000001,"LONGITUDE":-59.952173999999999,"MUNICIPIO":"MANAUS"},"geometry":{"x":-59.952199999243021,"y":-3.0139999985694885}},{"attributes":{"FID":201,"ID":201,"ESCOLA":"ESCOLA ESTADUAL PROF ERNANE NASCIMENTO SIMAO","ENDERECO":"RUA VIOLETA BAYMA","NUM":"1475","BAIRRO":"GILBERTO MESTRINHO","ZONA":"ZONA LESTE","CEP":69086653,"LOCAL":"URBANA","DISTRITO":"COORD. DISTRITAL 05","INEP":13095633,"SIGEAM":6521,"TIPO":"NORMAL","REDE":"ESTADUAL","LATITUDE":-3.0670519999999999,"LONGITUDE":-59.924489999999999,"MUNICIPIO":"MANAUS"},"geometry":{"x":-59.924499999731779,"y":-3.0670999996364117}},{"attributes":{"FID":202,"ID":202,"ESCOLA":"ESCOLA ESTADUAL PROF DEMOSTENES BELDUQUE ARAUJO TRAVESSA","ENDERECO":"CASSIA BAIANA","NUM":"73","BAIRRO":"JORGE TEIXEIRA","ZONA":"ZONA LESTE","CEP":69088474,"LOCAL":"URBANA","DISTRITO":"COORD. DISTRITAL 05","INEP":13095099,"SIGEAM":6522,"TIPO":"NORMAL","REDE":"ESTADUAL","LATITUDE":-3.0303800000000001,"LONGITUDE":-59.930120000000002,"MUNICIPIO":"MANAUS"},"geometry":{"x":-59.930100001394749,"y":-3.0304000005125999}},{"attributes":{"FID":203,"ID":203,"ESCOLA":"ESCOLA ESTADUAL TEMPO INT RAFAIEL HENRIQUE PINHEIRO DOS SANTOS","ENDERECO":"RUA SANTA MARTA","NUM":"S/N","BAIRRO":"COLONIA TERRA NOVA","ZONA":"ZONA NORTE","CEP":69015410,"LOCAL":"URBANA","DISTRITO":"COORD. DISTRITAL 07","INEP":13258214,"SIGEAM":6524,"TIPO":"INTEG","REDE":"ESTADUAL","LATITUDE":-3.0031970000000001,"LONGITUDE":-60.0244,"MUNICIPIO":"MANAUS"},"geometry":{"x":-60.024399999529123,"y":-3.0031999982893467}},{"attributes":{"FID":204,"ID":204,"ESCOLA":"ESCOLA ESTADUAL PROF SEBASTIAO AUGUSTO LOUREIRO FILHO","ENDERECO":"AV PRINCIPAL","NUM":"S/N","BAIRRO":"NOVA CIDADE","ZONA":"ZONA NORTE","CEP":69059000,"LOCAL":"URBANA","DISTRITO":"COORD. DISTRITAL 07","INEP":13095722,"SIGEAM":6525,"TIPO":"NORMAL","REDE":"ESTADUAL","LATITUDE":-2.987285,"LONGITUDE":-59.988213999999999,"MUNICIPIO":"MANAUS"},"geometry":{"x":-59.988200001418591,"y":-2.9873000010848045}},{"attributes":{"FID":205,"ID":205,"ESCOLA":"ESCOLA ESTADUAL PROFA TEREZA SIQUEIRA TUPINAMBA","ENDERECO":"AV NEPAL","NUM":"S/N","BAIRRO":"NOVA CIDADE","ZONA":"ZONA NORTE","CEP":69097315,"LOCAL":"URBANA","DISTRITO":"COORD. DISTRITAL 07","INEP":13131206,"SIGEAM":6526,"TIPO":"NORMAL","REDE":"ESTADUAL","LATITUDE":-2.9976280000000002,"LONGITUDE":-59.971195000000002,"MUNICIPIO":"MANAUS"},"geometry":{"x":-59.971200000494719,"y":-2.9976000003516674}},{"attributes":{"FID":206,"ID":206,"ESCOLA":"ESCOLA ESTADUAL FREI MARIO MONACELLI","ENDERECO":"AV GRANDE CIRCULAR","NUM":"S/N","BAIRRO":"CIDADE DE DEUS","ZONA":"ZONA NORTE","CEP":69099000,"LOCAL":"URBANA","DISTRITO":"COORD. DISTRITAL 06","INEP":13245201,"SIGEAM":7216,"TIPO":"NORMAL","REDE":"ESTADUAL","LATITUDE":-3.010294,"LONGITUDE":-59.953555000000001,"MUNICIPIO":"MANAUS"},"geometry":{"x":-59.953600000590086,"y":-3.0102999992668629}},{"attributes":{"FID":207,"ID":207,"ESCOLA":"ESCOLA ESTADUAL PROFA ANA LUCIA DE MORAES COSTA E SILVA","ENDERECO":"RUA PARINTINS","NUM":"S/N","BAIRRO":"COLONIA TERRA NOVA","ZONA":"ZONA NORTE","CEP":69015140,"LOCAL":"URBANA","DISTRITO":"COORD. DISTRITAL 07","INEP":13257218,"SIGEAM":7221,"TIPO":"NORMAL","REDE":"ESTADUAL","LATITUDE":-3.0154809999999999,"LONGITUDE":-60.011724000000001,"MUNICIPIO":"MANAUS"},"geometry":{"x":-60.011700000613928,"y":-3.0155000016093254}},{"attributes":{"FID":208,"ID":208,"ESCOLA":"ESCOLA ESTADUAL AUREA PINHEIRO BRAGA","ENDERECO":"AV PERIMETRAL","NUM":"S/N","BAIRRO":"GILBERTO MESTRINHO","ZONA":"ZONA LESTE","CEP":69089340,"LOCAL":"URBANA","DISTRITO":"COORD. DISTRITAL 05","INEP":13246208,"SIGEAM":7222,"TIPO":"NORMAL","REDE":"ESTADUAL","LATITUDE":-3.075151,"LONGITUDE":-59.927194999999998,"MUNICIPIO":"MANAUS"},"geometry":{"x":-59.927200000733137,"y":-3.0751999989151955}},{"attributes":{"FID":209,"ID":209,"ESCOLA":"ESCOLA ESTADUAL PROFA HAYDEE CABRAL LYRA","ENDERECO":"AV CURACAO","NUM":"S/N","BAIRRO":"NOVA CIDADE","ZONA":"ZONA NORTE","CEP":69097235,"LOCAL":"URBANA","DISTRITO":"COORD. DISTRITAL 07","INEP":13259202,"SIGEAM":7238,"TIPO":"NORMAL","REDE":"ESTADUAL","LATITUDE":-2.992693,"LONGITUDE":-59.980452999999997,"MUNICIPIO":"MANAUS"},"geometry":{"x":-59.980500001460314,"y":-2.9926999993622303}},{"attributes":{"FID":210,"ID":210,"ESCOLA":"ESCOLA ESTADUAL SENADOR JEFFERSON CARPINTEIRO PERES","ENDERECO":"RUA SECUNDARIA 3","NUM":"S/N","BAIRRO":"NOVA CIDADE","ZONA":"ZONA NORTE","CEP":69090000,"LOCAL":"URBANA","DISTRITO":"COORD. DISTRITAL 07","INEP":13257226,"SIGEAM":7239,"TIPO":"NORMAL","REDE":"ESTADUAL","LATITUDE":-2.9952179999999999,"LONGITUDE":-59.973033999999998,"MUNICIPIO":"MANAUS"},"geometry":{"x":-59.973000001162291,"y":-2.9952000007033348}},{"attributes":{"FID":211,"ID":211,"ESCOLA":"ESCOLA ESTADUAL RAIO DE SOL","ENDERECO":"RUA ILHAS MALDIVAS","NUM":"S/N","BAIRRO":"CIDADE NOVA","ZONA":"ZONA NORTE","CEP":69097272,"LOCAL":"URBANA","DISTRITO":"COORD. DISTRITAL 06","INEP":13241281,"SIGEAM":7240,"TIPO":"NORMAL","REDE":"ESTADUAL","LATITUDE":-3.0104739999999999,"LONGITUDE":-59.971183000000003,"MUNICIPIO":"MANAUS"},"geometry":{"x":-59.971200000494719,"y":-3.0104999989271164}},{"attributes":{"FID":212,"ID":212,"ESCOLA":"ESCOLA ESTADUAL AYRTON SENNA","ENDERECO":"RUA PRINCIPAL 2","NUM":"S/N","BAIRRO":"NOVA CIDADE","ZONA":"ZONA NORTE","CEP":69097387,"LOCAL":"URBANA","DISTRITO":"COORD. DISTRITAL 07","INEP":13260200,"SIGEAM":7241,"TIPO":"NORMAL","REDE":"ESTADUAL","LATITUDE":-2.9866160000000002,"LONGITUDE":-59.988574,"MUNICIPIO":"MANAUS"},"geometry":{"x":-59.988600000739098,"y":-2.986600000411272}},{"attributes":{"FID":213,"ID":213,"ESCOLA":"ESCOLA ESTADUAL MADRE TEREZA DE CALCUTA","ENDERECO":"AV SAO PEDRO","NUM":"102","BAIRRO":"MORRO DA LIBERDADE","ZONA":"ZONA SUL","CEP":69074000,"LOCAL":"URBANA","DISTRITO":"COORD. DISTRITAL 02","INEP":13066838,"SIGEAM":7385,"TIPO":"INTEG","REDE":"ESTADUAL","LATITUDE":-3.1359360000000001,"LONGITUDE":-60.001865000000002,"MUNICIPIO":"MANAUS"},"geometry":{"x":-60.001899998635054,"y":-3.1358999982476234}},{"attributes":{"FID":214,"ID":214,"ESCOLA":"ESCOLA ESTADUAL ANA NEIRE MARQUES DA SILVA","ENDERECO":"AV MARGINAL ESQUERDA","NUM":"S/N","BAIRRO":"NOVA CIDADE","ZONA":"ZONA NORTE","CEP":69092000,"LOCAL":"URBANA","DISTRITO":"COORD. DISTRITAL 07","INEP":13304232,"SIGEAM":7421,"TIPO":"NORMAL","REDE":"ESTADUAL","LATITUDE":-3.014259,"LONGITUDE":-59.988249000000003,"MUNICIPIO":"MANAUS"},"geometry":{"x":-59.988200001418591,"y":-3.014299999922514}},{"attributes":{"FID":215,"ID":215,"ESCOLA":"ESCOLA ESTADUAL DRA ZILDA ARNS NEUMANN","ENDERECO":"RUA 212","NUM":"S/N","BAIRRO":"NOVA CIDADE","ZONA":"ZONA NORTE","CEP":69097514,"LOCAL":"URBANA","DISTRITO":"COORD. DISTRITAL 07","INEP":13304240,"SIGEAM":7422,"TIPO":"NORMAL","REDE":"ESTADUAL","LATITUDE":-2.9911789999999998,"LONGITUDE":-59.984161999999998,"MUNICIPIO":"MANAUS"},"geometry":{"x":-59.984200000762939,"y":-2.9912000000476837}},{"attributes":{"FID":216,"ID":216,"ESCOLA":"ESCOLA ESTADUAL IRMA GABRIELLE COGELS","ENDERECO":"RUA BARROSO","NUM":"S/N","BAIRRO":"PURAQUEQUARA","ZONA":"ZONA LESTE","CEP":69009325,"LOCAL":"URBANA","DISTRITO":"COORD. DISTRITAL 05","INEP":13314211,"SIGEAM":7442,"TIPO":"INTEG","REDE":"ESTADUAL","LATITUDE":-3.0590579999999998,"LONGITUDE":-59.845154999999998,"MUNICIPIO":"MANAUS"},"geometry":{"x":-59.845199998468161,"y":-3.0590999983251095}},{"attributes":{"FID":217,"ID":217,"ESCOLA":"ESCOLA ESTADUAL TEMPO INT PROF GARCITYLZO DO LAGO E SILVA","ENDERECO":"RUA RAINHA MARGARIDA","NUM":"S/N","BAIRRO":"TARUMA","ZONA":"ZONA OESTE","CEP":69041185,"LOCAL":"URBANA","DISTRITO":"COORD. DISTRITAL 07","INEP":13304259,"SIGEAM":7466,"TIPO":"INTEG","REDE":"ESTADUAL","LATITUDE":-3.0136639999999999,"LONGITUDE":-60.042617999999997,"MUNICIPIO":"MANAUS"},"geometry":{"x":-60.042599998414516,"y":-3.0137000009417534}},{"attributes":{"FID":218,"ID":218,"ESCOLA":"ESCOLA ESTADUAL DE TEMPO INTEGRAL DRA ZILDA ARNS NEUMANN","ENDERECO":"RUA SANTA MARTA","NUM":"S/N","BAIRRO":"COLONIA TERRA NOVA","ZONA":"ZONA NORTE","CEP":69015410,"LOCAL":"URBANA","DISTRITO":"COORD. DISTRITAL 07","INEP":13304267,"SIGEAM":7516,"TIPO":"INTEG","REDE":"ESTADUAL","LATITUDE":-3.002659,"LONGITUDE":-60.022754999999997,"MUNICIPIO":"MANAUS"},"geometry":{"x":-60.022799998521805,"y":-3.002700001001358}},{"attributes":{"FID":219,"ID":219,"ESCOLA":"ESCOLA ESTADUAL TEMPO INT MARCANTONIO VILACA II","ENDERECO":"AV MAX TEIXEIRA","NUM":"S/N","BAIRRO":"CIDADE NOVA","ZONA":"ZONA NORTE","CEP":69090001,"LOCAL":"URBANA","DISTRITO":"COORD. DISTRITAL 06","INEP":13304224,"SIGEAM":7517,"TIPO":"INTEG","REDE":"ESTADUAL","LATITUDE":-3.0384120000000001,"LONGITUDE":-60.003456999999997,"MUNICIPIO":"MANAUS"},"geometry":{"x":-60.003499999642372,"y":-3.0384000018239021}},{"attributes":{"FID":220,"ID":220,"ESCOLA":"ESCOLA ESTADUAL DE TEMPO INTEGRAL JOAO DOS SANTOS BRAGA","ENDERECO":"RUA CURACAO","NUM":"S/N","BAIRRO":"MONTE DAS OLIVEIRAS","ZONA":"ZONA NORTE","CEP":69097235,"LOCAL":"URBANA","DISTRITO":"COORD. DISTRITAL 07","INEP":13313215,"SIGEAM":7679,"TIPO":"INTEG","REDE":"ESTADUAL","LATITUDE":-2.9869530000000002,"LONGITUDE":-59.989646999999998,"MUNICIPIO":"MANAUS"},"geometry":{"x":-59.989599999040365,"y":-2.9869999997317791}},{"attributes":{"FID":221,"ID":221,"ESCOLA":"ESCOLA ESTADUAL DE TEMPO INT AUREA PINHEIRO BRAGA","ENDERECO":"AV BRASIL","NUM":"S/N","BAIRRO":"SANTO AGOSTINHO","ZONA":"ZONA OESTE","CEP":69036595,"LOCAL":"URBANA","DISTRITO":"COORD. DISTRITAL 04","INEP":13102320,"SIGEAM":7710,"TIPO":"INTEG","REDE":"ESTADUAL","LATITUDE":-3.0932409999999999,"LONGITUDE":-60.059593,"MUNICIPIO":"MANAUS"},"geometry":{"x":-60.059599999338388,"y":-3.0931999981403351}},{"attributes":{"FID":222,"ID":222,"ESCOLA":"ESCOLA ESTADUAL DE TEMPO INT GILBERTO MESTRINHO DE MEDEIROS RAPOSO","ENDERECO":"AV LEOPOLDO PERES","NUM":"S/N","BAIRRO":"EDUCANDOS","ZONA":"ZONA SUL","CEP":69070250,"LOCAL":"URBANA","DISTRITO":"COORD. DISTRITAL 02","INEP":13098497,"SIGEAM":7711,"TIPO":"INTEG","REDE":"ESTADUAL","LATITUDE":-3.1370269999999998,"LONGITUDE":-60.009132000000001,"MUNICIPIO":"MANAUS"},"geometry":{"x":-60.009100001305342,"y":-3.136999998241663}},{"attributes":{"FID":223,"ID":223,"ESCOLA":"CEJA PROF PAULO FREIRE","ENDERECO":"AV WALDEMAR PEDROSA","NUM":"60","BAIRRO":"CENTRO","ZONA":"ZONA SUL","CEP":69025000,"LOCAL":"URBANA","DISTRITO":"COORD. DISTRITAL 01","INEP":13096605,"SIGEAM":7739,"TIPO":"CEJA","REDE":"ESTADUAL","LATITUDE":-3.1177579999999998,"LONGITUDE":-60.026324000000002,"MUNICIPIO":"MANAUS"},